    {"0":{"idoffstation":"1","name":"MEROIL","address":"AVENIDA MERIDIANA, 666","ilat":"41.448","ilng":"2.18828","logoname":"meroil","idopeny":"1","recommended":"1","favorite":null,"distance":null},"1":{"idoffstation":"2","name":"AVIA","address":"POLIGONO SANSINENEA ERREKA, 14","ilat":"43.27356","ilng":"-2.27403","logoname":"avia","idopeny":"0","recommended":"1","favorite":null,"distance":null},"2":{"idoffstation":"3","name":"AVIA","address":"PASEO DR. BEGIRISTAIN, 75","ilat":"43.29708","ilng":"-1.96625","logoname":"avia","idopeny":"0","recommended":"1","favorite":null,"distance":null},"3":{"idoffstation":"4","name":"AVIA","address":"AVENIDA NAVARRA, 18","ilat":"43.33931","ilng":"-1.78225","logoname":"avia","idopeny":"0","recommended":"0","favorite":null,"distance":null},"4":{"idoffstation":"5","name":"AVIA","address":"AUTOVIA N-1 km 358","ilat":"42.87686","ilng":"-2.61636","logoname":"avia","idopeny":"0","recommended":"0","favorite":null,"distance":null},"5":{"idoffstation":"6","name":"AVIA","address":"AUTOVIA VITORIA-ATUBE KM. 6","ilat":"42.89567","ilng":"-2.70228","logoname":"avia","idopeny":"0","recommended":"0","favorite":null,"distance":null},"6":{"idoffstation":"7","name":"SHELL","address":"CM.CAMINO NUEVO DE PICA\u00d1A","ilat":"39.45806","ilng":"-0.40319","logoname":"shell","idopeny":"0","recommended":"0","favorite":null,"distance":null},"7":{"idoffstation":"8","name":"SHELL","address":"CALLE SANTO DOMINGO, 10","ilat":"40.50806","ilng":"-3.67908","logoname":"shell","idopeny":"0","recommended":"0","favorite":null,"distance":null},"8":{"idoffstation":"9","name":"SHELL","address":"AVENIDA DE LA CONSTITUCION, 262","ilat":"40.46569","ilng":"-3.439","logoname":"shell","idopeny":"0","recommended":"0","favorite":null,"distance":null},"9":{"idoffstation":"10","name":"STAROIL","address":"VIA CIERVA S\/N (MERCAGALICIA)-POLIGONO INDUSTRIAL DEL TAMBRE","ilat":"42.918","ilng":"-8.52716","logoname":"no-logo","idopeny":"0","recommended":"0","favorite":null,"distance":null},"10":{"idoffstation":"11","name":"AVIA  USOA","address":"POLIGONO ZONA COMERCIAL AEROPUERTO LOIU, 9","ilat":"43.30608","ilng":"-2.90039","logoname":"avia","idopeny":"0","recommended":"0","favorite":null,"distance":null},"11":{"idoffstation":"12","name":"ASIPO SERVICIOS","address":"POLIGONO ASIPO CL A, 21","ilat":"43.42717","ilng":"-5.83808","logoname":"no-logo","idopeny":"0","recommended":"0","favorite":null,"distance":null},"12":{"idoffstation":"13","name":"PETROMIRALLES","address":"CALLE GUIMARAES, S\/N","ilat":"41.58906","ilng":"1.62233","logoname":"petromiralles","idopeny":"0","recommended":"0","favorite":null,"distance":null},"13":{"idoffstation":"14","name":"E.LECLERC","address":"B\u00ba LA  MOREA S\/N (C.C. LECLERQ)","ilat":"42.7852","ilng":"-1.63429","logoname":"no-logo","idopeny":"0","recommended":"0","favorite":null,"distance":null},"14":{"idoffstation":"15","name":"TAMOIL","address":"AVENIDA FABREGADA, 55","ilat":"41.35831","ilng":"2.10794","logoname":"no-logo","idopeny":"0","recommended":"0","favorite":null,"distance":null},"15":{"idoffstation":"16","name":"TAMOIL","address":"CARRETERA VP-3065 KM. 18,4","ilat":"39.36878","ilng":"-0.50564","logoname":"no-logo","idopeny":"0","recommended":"0","favorite":null,"distance":null},"16":{"idoffstation":"17","name":"COMBUSTIBLES DEL PIRINEO","address":"JOAQU\u00cdN COSTA,38","ilat":"42.10881","ilng":"-0.14728","logoname":"no-logo","idopeny":"0","recommended":"0","favorite":null,"distance":null},"17":{"idoffstation":"18","name":"TAMOIL","address":"AUTOVIA AP-01 KM. 0,450","ilat":"41.114","ilng":"1.21708","logoname":"no-logo","idopeny":"0","recommended":"0","favorite":null,"distance":null},"18":{"idoffstation":"19","name":"CONDIS","address":"POLIGONO DE LA AIGUETA, S\/N","ilat":"41.96753","ilng":"3.03122","logoname":"no-logo","idopeny":"0","recommended":"0","favorite":null,"distance":null},"19":{"idoffstation":"20","name":"EROSKI","address":"CTRA. SAN SEBASTIAN (C.C. EROSKI) km 1","ilat":"42.83239","ilng":"-1.67764","logoname":"no-logo","idopeny":"0","recommended":"0","favorite":null,"distance":null},"20":{"idoffstation":"21","name":"ESTACIO SERVEI ALCOVER","address":"CRTA.C-14 km 19,50","ilat":"41.25058","ilng":"1.16989","logoname":"no-logo","idopeny":"0","recommended":"0","favorite":null,"distance":null},"21":{"idoffstation":"22","name":"ESTACIO SERVEI OLIANA","address":"CARRETERA C-14 KM. 141,000","ilat":"42.06433","ilng":"1.31292","logoname":"no-logo","idopeny":"0","recommended":"0","favorite":null,"distance":null},"22":{"idoffstation":"23","name":"AGLA","address":"CARRETERA CORDOBA-VALENCIA KM. 190","ilat":"38.17492","ilng":"-2.99939","logoname":"no-logo","idopeny":"0","recommended":"0","favorite":null,"distance":null},"23":{"idoffstation":"24","name":"EROSKI","address":"B\u00ba MURUETA, S\/N (C.C. EROSKI)","ilat":"43.17189","ilng":"-2.61811","logoname":"no-logo","idopeny":"0","recommended":"0","favorite":null,"distance":null},"24":{"idoffstation":"25","name":"ARENTO","address":"CALLE COOPERATIVA, 2","ilat":"41.93875","ilng":"-0.75761","logoname":"no-logo","idopeny":"0","recommended":"0","favorite":null,"distance":null},"25":{"idoffstation":"26","name":"EROSKI","address":"B\u00ba ZABALANDI S\/N (C.C. EROSKI)","ilat":"43.2275","ilng":"-2.87589","logoname":"no-logo","idopeny":"0","recommended":"0","favorite":null,"distance":null},"26":{"idoffstation":"27","name":"EROSKI","address":"POLIGONO SUI 1, (C.C. EROSKI), 1","ilat":"42.70464","ilng":"-2.91764","logoname":"no-logo","idopeny":"0","recommended":"0","favorite":null,"distance":null},"27":{"idoffstation":"28","name":"DACAR","address":"CALLE BEMPOSTA R-97, 97","ilat":"41.67025","ilng":"-3.70714","logoname":"no-logo","idopeny":"0","recommended":"0","favorite":null,"distance":null},"28":{"idoffstation":"29","name":"AN ENERGETICOS","address":"POLIGONO C\/A, S\/N","ilat":"42.49464","ilng":"-1.66506","logoname":"no-logo","idopeny":"0","recommended":"0","favorite":null,"distance":null},"29":{"idoffstation":"30","name":"AN ENERGETICOS LARRAGA","address":"CARRETERA CARRETERA LER\u00cdN KM,2 KM. 2","ilat":"42.55181","ilng":"-1.85203","logoname":"no-logo","idopeny":"0","recommended":"0","favorite":null,"distance":null},"30":{"idoffstation":"31","name":"TAMOIL","address":"CARRETERA A-394 KM. 16","ilat":"37.20069","ilng":"-5.74047","logoname":"no-logo","idopeny":"0","recommended":"0","favorite":null,"distance":null},"31":{"idoffstation":"32","name":"TAMOIL","address":"AVENIDA ANDALUCIA, S\/N","ilat":"37.19561","ilng":"-3.63267","logoname":"no-logo","idopeny":"0","recommended":"0","favorite":null,"distance":null},"32":{"idoffstation":"33","name":"TAMOIL","address":"CARRETERA N-IV KM. 339","ilat":"38.00558","ilng":"-4.19303","logoname":"no-logo","idopeny":"0","recommended":"0","favorite":null,"distance":null},"33":{"idoffstation":"34","name":"TAMOIL","address":"CARRETERA N-323 KM. 332,6","ilat":"37.78767","ilng":"-3.78292","logoname":"no-logo","idopeny":"0","recommended":"0","favorite":null,"distance":null},"34":{"idoffstation":"35","name":"BENZEGAR","address":"AVENIDA 22 DE JULIOL, 269","ilat":"41.57042","ilng":"2.00844","logoname":"no-logo","idopeny":"0","recommended":"0","favorite":null,"distance":null},"35":{"idoffstation":"36","name":"EROSKI","address":"CARRETERA PERALTA KM. 128","ilat":"42.33594","ilng":"-1.78997","logoname":"no-logo","idopeny":"0","recommended":"0","favorite":null,"distance":null},"36":{"idoffstation":"37","name":"COOP. NTRA.SRA. PILAR","address":"POLIGONO EL NAVALLO PARCELA B2, S\/N","ilat":"41.94892","ilng":"-1.69844","logoname":"no-logo","idopeny":"0","recommended":"0","favorite":null,"distance":null},"37":{"idoffstation":"38","name":"AN GLUS","address":"SEGOVIA km 00","ilat":"41.39025","ilng":"-4.30281","logoname":"no-logo","idopeny":"0","recommended":"0","favorite":null,"distance":null},"38":{"idoffstation":"39","name":"EL PUEYO","address":"CAMINO MOLINO, DEL, 105","ilat":"41.69292","ilng":"-0.77597","logoname":"no-logo","idopeny":"0","recommended":"0","favorite":null,"distance":null},"39":{"idoffstation":"40","name":"EROSKI","address":"C.C.EROSKI BERCEO","ilat":"42.46239","ilng":"-2.41739","logoname":"no-logo","idopeny":"0","recommended":"0","favorite":null,"distance":null},"40":{"idoffstation":"41","name":"EROSKI","address":"CTRA. LOGRO\u00d1O, S\/N  (C.C. EROSKI)","ilat":"42.31258","ilng":"-1.98125","logoname":"no-logo","idopeny":"0","recommended":"0","favorite":null,"distance":null},"41":{"idoffstation":"42","name":"FEIXAS AULET","address":"FRANCESC PUGET, 2","ilat":"42.00425","ilng":"2.29608","logoname":"no-logo","idopeny":"0","recommended":"0","favorite":null,"distance":null},"42":{"idoffstation":"43","name":"BDMED","address":"AVENIDA REAL DE EXTREMADURA, 9","ilat":"39.96383","ilng":"-0.23058","logoname":"no-logo","idopeny":"0","recommended":"0","favorite":null,"distance":null},"43":{"idoffstation":"44","name":"BDMED","address":"AVENIDA EUROPA ESQ. C\/ B\u00c9LGICA, 138","ilat":"39.97172","ilng":"-0.07575","logoname":"no-logo","idopeny":"0","recommended":"0","favorite":null,"distance":null},"44":{"idoffstation":"45","name":"PETROMAX LEVANTE","address":"CALLE TEIXIDORS, S\/N","ilat":"39.18589","ilng":"-0.50908","logoname":"no-logo","idopeny":"0","recommended":"0","favorite":null,"distance":null},"45":{"idoffstation":"46","name":"BDMED","address":"CARRETERA APEADERO DE BETXI POLIG. 19 PARC. 34 KM. 2","ilat":"39.95128","ilng":"-0.18247","logoname":"no-logo","idopeny":"0","recommended":"0","favorite":null,"distance":null},"46":{"idoffstation":"47","name":"EROSKI","address":"CTRA. ZARAGOZA (C.C. EROSKI),","ilat":"42.0355","ilng":"-1.588","logoname":"no-logo","idopeny":"0","recommended":"0","favorite":null,"distance":null},"47":{"idoffstation":"48","name":"EROSKI","address":"CARRETERA NACIONAL 635 KM. 2,7","ilat":"43.42889","ilng":"-3.83694","logoname":"no-logo","idopeny":"0","recommended":"0","favorite":null,"distance":null},"48":{"idoffstation":"49","name":"EROSKI","address":"C\/  ZARAMAGA,1, C.C. BOULEVARD  (EROSKI)","ilat":"42.86031","ilng":"-2.66428","logoname":"no-logo","idopeny":"0","recommended":"0","favorite":null,"distance":null},"49":{"idoffstation":"50","name":"ACCIONA BIOCOMBUSTIBLES","address":"AUTOVIA A-12 km 16,5","ilat":"42.71072","ilng":"-1.7772","logoname":"no-logo","idopeny":"0","recommended":"0","favorite":null,"distance":null},"50":{"idoffstation":"51","name":"BATAN","address":"CTRA. C-511 km 74,600","ilat":"39.97269","ilng":"-6.37308","logoname":"no-logo","idopeny":"0","recommended":"0","favorite":null,"distance":null},"51":{"idoffstation":"52","name":"TAMOIL","address":"POLIGONO SUR MANZANA 23 UE-2H, 1","ilat":"36.67022","ilng":"-6.14517","logoname":"no-logo","idopeny":"0","recommended":"0","favorite":null,"distance":null},"52":{"idoffstation":"53","name":"EROSKI","address":"AVENIDA ZUMALACARREGUI (C.C. EROSKI), S\/N","ilat":"43.138","ilng":"-2.968","logoname":"no-logo","idopeny":"0","recommended":"0","favorite":null,"distance":null},"53":{"idoffstation":"54","name":"COOP.SAN LICER - ARENTO","address":"CALLE AUSTRIA, 11,17","ilat":"41.88358","ilng":"-0.78283","logoname":"no-logo","idopeny":"0","recommended":"0","favorite":null,"distance":null},"54":{"idoffstation":"55","name":"XOPLUC-PETROMIRALLES","address":"C-53 km 127","ilat":"41.72222","ilng":"1.00117","logoname":"no-logo","idopeny":"0","recommended":"0","favorite":null,"distance":null},"55":{"idoffstation":"56","name":"EROSKI","address":"B\u00ba PERURI, S\/N (C.C. EROSKI)","ilat":"43.34039","ilng":"-2.99439","logoname":"no-logo","idopeny":"0","recommended":"0","favorite":null,"distance":null},"56":{"idoffstation":"57","name":"PETROMIRALLES","address":"PG IND. LA CANALETA S\/N (BARCELONA-MADRID km 507)","ilat":"41.66278","ilng":"1.13347","logoname":"petromiralles","idopeny":"0","recommended":"0","favorite":null,"distance":null},"57":{"idoffstation":"58","name":"TAMOIL","address":"CARRETERA A-492 KM. 0,100","ilat":"37.27394","ilng":"-6.99103","logoname":"no-logo","idopeny":"0","recommended":"0","favorite":null,"distance":null},"58":{"idoffstation":"59","name":"OIL PRIX","address":"AVENIDA DE LA FAMA, 2","ilat":"41.35381","ilng":"2.08083","logoname":"no-logo","idopeny":"0","recommended":"0","favorite":null,"distance":null},"59":{"idoffstation":"60","name":"OIL PRIX","address":"PLAZA LA SARDANA, 3","ilat":"41.37233","ilng":"2.083","logoname":"no-logo","idopeny":"0","recommended":"0","favorite":null,"distance":null},"60":{"idoffstation":"61","name":"AVIA","address":"NAVAS DE TOLOSA, 78 (VALTIERRA-SAN ADRIAN-NA-134 km 12,64)","ilat":"42.24414","ilng":"-1.76994","logoname":"avia","idopeny":"0","recommended":"0","favorite":null,"distance":null},"61":{"idoffstation":"62","name":"OIL PRIX","address":"AVENIDA BARCELONA, 41,43","ilat":"41.36764","ilng":"2.06189","logoname":"no-logo","idopeny":"0","recommended":"0","favorite":null,"distance":null},"62":{"idoffstation":"63","name":"SAENZ DE MIERA SL","address":"AVENIDA PALANQUINOS, 2","ilat":"42.29669","ilng":"-5.51553","logoname":"no-logo","idopeny":"0","recommended":"0","favorite":null,"distance":null},"63":{"idoffstation":"64","name":"EROSKI","address":"TRAVESIA GARBERA S\/N (C.C. EROSKI)","ilat":"43.31119","ilng":"-1.94389","logoname":"no-logo","idopeny":"0","recommended":"0","favorite":null,"distance":null},"64":{"idoffstation":"65","name":"EROSKI","address":"CTRA. BERGARA   GI-627 (C.C. EROSKI) km 37","ilat":"43.0707","ilng":"-2.47528","logoname":"no-logo","idopeny":"0","recommended":"0","favorite":null,"distance":null},"65":{"idoffstation":"66","name":"EROSKI","address":"CTRA. SAN SEBASTIAN (C.C. EROSKI)","ilat":"43.27689","ilng":"-2.02219","logoname":"no-logo","idopeny":"0","recommended":"0","favorite":null,"distance":null},"66":{"idoffstation":"67","name":"EROSKI","address":"Avd. Iparaguirre 110,  (C.C. EROSKI)","ilat":"43.31769","ilng":"-2.97319","logoname":"no-logo","idopeny":"0","recommended":"0","favorite":null,"distance":null},"67":{"idoffstation":"68","name":"EROSKI","address":"B\u00ba EL BAULAR, S\/N (C.C. EROSKI)","ilat":"43.20989","ilng":"-3.12489","logoname":"no-logo","idopeny":"0","recommended":"0","favorite":null,"distance":null},"68":{"idoffstation":"69","name":"EROSKI","address":"KAREAGA N, PARCELA XV,POL. 3 (c.c. EROSKI)","ilat":"43.28719","ilng":"-3.00419","logoname":"no-logo","idopeny":"0","recommended":"0","favorite":null,"distance":null},"69":{"idoffstation":"70","name":"EROSKI","address":"AVENIDA VEGA DE IBARRA, S\/N","ilat":"43.31164","ilng":"-3.02428","logoname":"no-logo","idopeny":"0","recommended":"0","favorite":null,"distance":null},"70":{"idoffstation":"71","name":"EROSKI","address":"POLIGONO SAGASTIKOETXE, S\/N","ilat":"43.40808","ilng":"-2.9305","logoname":"no-logo","idopeny":"0","recommended":"0","favorite":null,"distance":null},"71":{"idoffstation":"72","name":"EROSKI","address":"RONDA CANAL IMPERIAL DE ARAGON, 8","ilat":"41.65144","ilng":"-0.98111","logoname":"no-logo","idopeny":"0","recommended":"0","favorite":null,"distance":null},"72":{"idoffstation":"73","name":"PETROMIRALLES","address":"CALLE LA MUNIA, 2","ilat":"41.33894","ilng":"1.68758","logoname":"petromiralles","idopeny":"0","recommended":"0","favorite":null,"distance":null},"73":{"idoffstation":"74","name":"GALP","address":"CARRETERA N-2 KM. 644","ilat":"41.52319","ilng":"2.42817","logoname":"galp","idopeny":"0","recommended":"0","favorite":null,"distance":null},"74":{"idoffstation":"75","name":"TAMOIL","address":"POL. IND. BABEL C\/ ARTES GR?FICAS, 89","ilat":"38.33586","ilng":"-0.51247","logoname":"no-logo","idopeny":"0","recommended":"0","favorite":null,"distance":null},"75":{"idoffstation":"76","name":"VIRGEN DE LA CORONA","address":"AVENIDA COOP.SANTIAGO MAXIMO SAMPER, 0","ilat":"42.04011","ilng":"-0.58803","logoname":"no-logo","idopeny":"0","recommended":"0","favorite":null,"distance":null},"76":{"idoffstation":"77","name":"LOW COST ATENDIDO O CORGO","address":"LUGAR CORGO ARRIBA, 10","ilat":"43.23061","ilng":"-8.46789","logoname":"no-logo","idopeny":"0","recommended":"0","favorite":null,"distance":null},"77":{"idoffstation":"78","name":"EROSKI","address":"CENTRO COMERCIAL COSO DEL REAL (A132 km 1,2)","ilat":"42.14806","ilng":"-0.42528","logoname":"no-logo","idopeny":"0","recommended":"0","favorite":null,"distance":null},"78":{"idoffstation":"79","name":"EROSKI","address":"POL\u00cdGONO CAMPANCI\u00c1N, S\/N (C.C. EROSKI)","ilat":"42.57719","ilng":"-0.52978","logoname":"no-logo","idopeny":"0","recommended":"0","favorite":null,"distance":null},"79":{"idoffstation":"80","name":"EESS ROMPETROL","address":"AVENIDA ALAVA, 12","ilat":"42.69292","ilng":"-2.92067","logoname":"no-logo","idopeny":"0","recommended":"0","favorite":null,"distance":null},"80":{"idoffstation":"81","name":"THADER","address":"PARQUE EMPRESARIAL THADER, 18","ilat":"38.031","ilng":"-1.14589","logoname":"no-logo","idopeny":"0","recommended":"0","favorite":null,"distance":null},"81":{"idoffstation":"82","name":"THADER","address":"AVENIDA DON JUAN DE BORBON, S\/","ilat":"38.01853","ilng":"-1.1375","logoname":"no-logo","idopeny":"0","recommended":"0","favorite":null,"distance":null},"82":{"idoffstation":"83","name":"PETROMIRALLES","address":"CARRETERA COMARCAL C-16 KM. 105","ilat":"42.15956","ilng":"1.85761","logoname":"petromiralles","idopeny":"0","recommended":"0","favorite":null,"distance":null},"83":{"idoffstation":"84","name":"PETROMIRALLES","address":"CARRETERA COMARCAL C-16 KM. 105,5","ilat":"42.16031","ilng":"1.85775","logoname":"petromiralles","idopeny":"0","recommended":"0","favorite":null,"distance":null},"84":{"idoffstation":"85","name":"ESCLATOIL","address":"HIPER ESCLAT. CTRA. C-17 km 55","ilat":"41.88203","ilng":"2.24358","logoname":"no-logo","idopeny":"0","recommended":"0","favorite":null,"distance":null},"85":{"idoffstation":"86","name":"ORTEGAL OIL","address":"CARRETERA N-651 KM. 27,2","ilat":"43.45089","ilng":"-8.16656","logoname":"no-logo","idopeny":"0","recommended":"0","favorite":null,"distance":null},"86":{"idoffstation":"87","name":"REPOSTAR--ZARATAN","address":"ADVA. GIJON, N-601 km 194,6","ilat":"41.66181","ilng":"-4.76808","logoname":"no-logo","idopeny":"0","recommended":"0","favorite":null,"distance":null},"87":{"idoffstation":"88","name":"BELLAVISTA S.L.","address":"CARRETERA NACIONAL 110 KM. 335,2","ilat":"40.3585","ilng":"-5.51653","logoname":"no-logo","idopeny":"0","recommended":"0","favorite":null,"distance":null},"88":{"idoffstation":"89","name":"E.S.AVINYONET","address":"CARRETERA C-260 DE BESALU A ROSES KM. 41,000","ilat":"42.25808","ilng":"2.94778","logoname":"no-logo","idopeny":"0","recommended":"0","favorite":null,"distance":null},"89":{"idoffstation":"90","name":"TAMOIL","address":"CARRETERA N340 KM. 254,9","ilat":"36.72528","ilng":"-4.27453","logoname":"no-logo","idopeny":"0","recommended":"0","favorite":null,"distance":null},"90":{"idoffstation":"91","name":"TAMOIL","address":"CARRETERA TP-2124 KM. 1,6","ilat":"41.27547","ilng":"1.59281","logoname":"no-logo","idopeny":"0","recommended":"0","favorite":null,"distance":null},"91":{"idoffstation":"92","name":"TAMOIL","address":"CALLE PUJADES, 309","ilat":"41.40669","ilng":"2.20703","logoname":"no-logo","idopeny":"0","recommended":"0","favorite":null,"distance":null},"92":{"idoffstation":"93","name":"GALP","address":"AVINGUDA DEL PARALELO, 132","ilat":"41.37528","ilng":"2.16056","logoname":"galp","idopeny":"0","recommended":"0","favorite":null,"distance":null},"93":{"idoffstation":"94","name":"E.S. KANTOI","address":"CALLE OTAOLA, 13","ilat":"43.18161","ilng":"-2.48292","logoname":"no-logo","idopeny":"0","recommended":"0","favorite":null,"distance":null},"94":{"idoffstation":"95","name":"E.S. SAN MIGUEL","address":"AVDA. LORA DEL R\u00cdO, S\/N\u00ba","ilat":"37.57211","ilng":"-5.42914","logoname":"no-logo","idopeny":"0","recommended":"0","favorite":null,"distance":null},"95":{"idoffstation":"96","name":"ESC-PETROLEOS","address":"CARRETERA AS-114 KM. 1,100","ilat":"43.35411","ilng":"-5.12497","logoname":"no-logo","idopeny":"0","recommended":"0","favorite":null,"distance":null},"96":{"idoffstation":"97","name":"AVIA","address":"CALLE URARTEA, 23","ilat":"42.86378","ilng":"-2.71272","logoname":"avia","idopeny":"0","recommended":"0","favorite":null,"distance":null},"97":{"idoffstation":"98","name":"E.S. MERCAOLID","address":"C\/ EURO, 17","ilat":"41.67254","ilng":"-4.71781","logoname":"no-logo","idopeny":"0","recommended":"0","favorite":null,"distance":null},"98":{"idoffstation":"99","name":"ORTEGAL OIL","address":"RUA BERNARDO ROMERO, 3","ilat":"43.53181","ilng":"-8.19522","logoname":"no-logo","idopeny":"0","recommended":"0","favorite":null,"distance":null},"99":{"idoffstation":"100","name":"BYE","address":"CALLE ALCALDE LAVADORES, 64","ilat":"42.22142","ilng":"-8.69686","logoname":"no-logo","idopeny":"0","recommended":"0","favorite":null,"distance":null},"100":{"idoffstation":"101","name":"E.S.OASIS","address":"CARRETERA CRTA.STA.CREU CALAFELL KM 7,8 KM. 7,800","ilat":"41.34581","ilng":"2.05019","logoname":"no-logo","idopeny":"0","recommended":"0","favorite":null,"distance":null},"101":{"idoffstation":"102","name":"COBASA","address":"AVENIDA VALLES, 149","ilat":"41.55275","ilng":"2.03994","logoname":"no-logo","idopeny":"0","recommended":"0","favorite":null,"distance":null},"102":{"idoffstation":"103","name":"AREA DE SERVICIO LA PALME","address":"CALLE PROSPERIDAD, 61","ilat":"43.40442","ilng":"-3.83611","logoname":"no-logo","idopeny":"0","recommended":"0","favorite":null,"distance":null},"103":{"idoffstation":"104","name":"AVIA","address":"GI-120 km 65","ilat":"43.04195","ilng":"-2.18833","logoname":"avia","idopeny":"0","recommended":"0","favorite":null,"distance":null},"104":{"idoffstation":"105","name":"ICOS OIL","address":"CARRETERA SOBREIRA KM. 2,5","ilat":"42.62125","ilng":"-7.78736","logoname":"no-logo","idopeny":"0","recommended":"0","favorite":null,"distance":null},"105":{"idoffstation":"106","name":"FARRUCO S.A.","address":"SAN ROQUE, 3","ilat":"40.02586","ilng":"-4.42494","logoname":"no-logo","idopeny":"0","recommended":"0","favorite":null,"distance":null},"106":{"idoffstation":"107","name":"REPOSTAR-LA TORRE","address":"N-VI km 196,9","ilat":"41.59782","ilng":"-5.12181","logoname":"no-logo","idopeny":"0","recommended":"0","favorite":null,"distance":null},"107":{"idoffstation":"108","name":"AVIA VISTA ALEGRE","address":"CTRA. N-623, KM,2 (CC MIRADOR)","ilat":"42.35869","ilng":"-3.69511","logoname":"avia","idopeny":"0","recommended":"0","favorite":null,"distance":null},"108":{"idoffstation":"109","name":"COBASA L-M: 06:00-23:00;","address":"RAMBLA IBERIA D\u0027, 203","ilat":"41.53636","ilng":"2.09633","logoname":"no-logo","idopeny":"0","recommended":"0","favorite":null,"distance":null},"109":{"idoffstation":"110","name":"TAMOIL","address":"CARRETERA TV-3321 KM. 0,9","ilat":"40.53958","ilng":"0.47189","logoname":"no-logo","idopeny":"0","recommended":"0","favorite":null,"distance":null},"110":{"idoffstation":"111","name":"TAMOIL","address":"CARRETERA C-25 KM. 240","ilat":"41.89689","ilng":"2.81083","logoname":"no-logo","idopeny":"0","recommended":"0","favorite":null,"distance":null},"111":{"idoffstation":"112","name":"TAMOIL","address":"CARRETERA C-55 KM. 39","ilat":"41.76964","ilng":"1.78944","logoname":"no-logo","idopeny":"0","recommended":"0","favorite":null,"distance":null},"112":{"idoffstation":"113","name":"IS-XXI","address":"CALLE POLIGONO OKITURRI, 4","ilat":"42.86358","ilng":"-2.32408","logoname":"no-logo","idopeny":"0","recommended":"0","favorite":null,"distance":null},"113":{"idoffstation":"114","name":"EL HAYA SERVICIOS S.A.","address":"CARRETERA N-634 KM. 136,4","ilat":"43.34092","ilng":"-3.15508","logoname":"no-logo","idopeny":"0","recommended":"0","favorite":null,"distance":null},"114":{"idoffstation":"115","name":"MARCOS GARRIDO","address":null,"ilat":"40.06067","ilng":"-6.25997","logoname":"no-logo","idopeny":"0","recommended":"0","favorite":null,"distance":null},"115":{"idoffstation":"116","name":"ESASA","address":"CALLE REYES CATOLICOS, 2","ilat":"42.855","ilng":"-2.67294","logoname":"no-logo","idopeny":"0","recommended":"0","favorite":null,"distance":null},"116":{"idoffstation":"117","name":"SANCARISA","address":"CTRA. DE BRENES, A-8008, KM. 1 VALDEZORRAS","ilat":"37.43153","ilng":"-5.93386","logoname":"no-logo","idopeny":"0","recommended":"0","favorite":null,"distance":null},"117":{"idoffstation":"118","name":"LISBONA OIL","address":"CL ANGUSTIAS, 1","ilat":"36.74594","ilng":"-4.09631","logoname":"no-logo","idopeny":"0","recommended":"0","favorite":null,"distance":null},"118":{"idoffstation":"119","name":"AN ENERGETICOS UCOGAL","address":"POLIGONO PARCELAS 88 Y 89, S\/N","ilat":"42.39594","ilng":"-5.51208","logoname":"no-logo","idopeny":"0","recommended":"0","favorite":null,"distance":null},"119":{"idoffstation":"120","name":"E.LECLERC","address":"AVDA. E. LECLERC,   N\u00ba2 (C.C. E.LECLERC)","ilat":"40.94631","ilng":"-5.64222","logoname":"no-logo","idopeny":"0","recommended":"0","favorite":null,"distance":null},"120":{"idoffstation":"121","name":"GALP","address":"POLIGONO PLA DE L\u0027ESTACIO, S\/N","ilat":"41.31386","ilng":"1.65239","logoname":"galp","idopeny":"0","recommended":"0","favorite":null,"distance":null},"121":{"idoffstation":"122","name":"PETROZAL","address":"PASSATGE MO\u00c7ANVIC, S\/N","ilat":"41.33292","ilng":"2.13708","logoname":"no-logo","idopeny":"0","recommended":"0","favorite":null,"distance":null},"122":{"idoffstation":"123","name":"ESTACION DE SERVICIO BENS","address":"AVDA. FINISTERRE, 265 F","ilat":"43.35717","ilng":"-8.42311","logoname":"no-logo","idopeny":"0","recommended":"0","favorite":null,"distance":null},"123":{"idoffstation":"124","name":"MEROIL","address":"BARRIO DE RIOCORVO, 2 (N-611 PALENCIA-SANTANDER km 179,8)","ilat":"43.31447","ilng":"-4.06928","logoname":"meroil","idopeny":"0","recommended":"0","favorite":null,"distance":null},"124":{"idoffstation":"125","name":"GF","address":"AVENIDA CAMPON EL, 16","ilat":"43.57117","ilng":"-5.95953","logoname":"no-logo","idopeny":"0","recommended":"0","favorite":null,"distance":null},"125":{"idoffstation":"126","name":"STAROIL","address":"AUTOVIA A52 KM. 132","ilat":"42.02489","ilng":"-7.18208","logoname":"no-logo","idopeny":"0","recommended":"0","favorite":null,"distance":null},"126":{"idoffstation":"127","name":"ESTACION DE SERVICIO PUER","address":"CRA. DEL ROCIO km 15.10","ilat":"37.23311","ilng":"-6.51189","logoname":"no-logo","idopeny":"0","recommended":"0","favorite":null,"distance":null},"127":{"idoffstation":"128","name":"GALP","address":"AVENIDA ACEA DE AMA, 25","ilat":"43.31883","ilng":"-8.37428","logoname":"galp","idopeny":"0","recommended":"0","favorite":null,"distance":null},"128":{"idoffstation":"129","name":"G ESTACIONES DE SERVICIO","address":"CARRETERA N-VI KM. 447","ilat":"42.80419","ilng":"-7.10972","logoname":"no-logo","idopeny":"0","recommended":"0","favorite":null,"distance":null},"129":{"idoffstation":"130","name":"PINAROIL S.L.","address":"CARRETERA BURGOS-SAGUNTO KM. S\/N","ilat":"42.02764","ilng":"-3.32297","logoname":"no-logo","idopeny":"0","recommended":"0","favorite":null,"distance":null},"130":{"idoffstation":"131","name":"AGLA","address":"CARRETERA CARRETERA H 611 KM 4,7 KM. SN","ilat":"37.35522","ilng":"-6.54086","logoname":"no-logo","idopeny":"0","recommended":"0","favorite":null,"distance":null},"131":{"idoffstation":"132","name":"BIONET","address":"POL. INDUSTRIAL RIU-CLAR, C\/ SOFRE N\u00ba 3","ilat":"41.1385","ilng":"1.2218","logoname":"no-logo","idopeny":"0","recommended":"0","favorite":null,"distance":null},"132":{"idoffstation":"133","name":"EDV","address":"CARRETERA M -611 KM. 7,6   GENERAL SANJURJO KM. 7,6","ilat":"40.81","ilng":"-3.7705","logoname":"no-logo","idopeny":"0","recommended":"0","favorite":null,"distance":null},"133":{"idoffstation":"134","name":"CEPSA","address":"CARRETERA BV-5122 KM. 5,1","ilat":"41.72567","ilng":"2.67292","logoname":"cepsa","idopeny":"0","recommended":"0","favorite":null,"distance":null},"134":{"idoffstation":"135","name":"MEROIL","address":"POLIGONO C\/GUARNICIONEROS, 18,19","ilat":"37.24547","ilng":"-5.10906","logoname":"meroil","idopeny":"0","recommended":"0","favorite":null,"distance":null},"135":{"idoffstation":"136","name":"ESTACION DE SERVICIO ARME","address":"PUEBLA DE ALCOCER km 0.150","ilat":"38.72979","ilng":"-5.22303","logoname":"no-logo","idopeny":"0","recommended":"0","favorite":null,"distance":null},"136":{"idoffstation":"137","name":"SUANCES","address":"CTRA. PALENCIA-ORENSE km 2,00","ilat":"42.01617","ilng":"-4.54592","logoname":"no-logo","idopeny":"0","recommended":"0","favorite":null,"distance":null},"137":{"idoffstation":"138","name":"IS-XXI","address":"POLIGONO LA BISBAL, 10","ilat":"42.22911","ilng":"2.99083","logoname":"no-logo","idopeny":"0","recommended":"0","favorite":null,"distance":null},"138":{"idoffstation":"139","name":"CODES","address":"AUTOVIA POL.IND.GUADARRANQUE PARC.9A (N-340 AUTOVIA A-7 (E-15) CADIZ-MADRID SALIDA116 KM. ","ilat":"36.20389","ilng":"-5.41119","logoname":"no-logo","idopeny":"0","recommended":"0","favorite":null,"distance":null},"139":{"idoffstation":"140","name":"REPSOL","address":"CALLE ALBERTO AGUILERA, 9","ilat":"40.42969","ilng":"-3.70839","logoname":"repsol","idopeny":"0","recommended":"0","favorite":null,"distance":null},"140":{"idoffstation":"141","name":"REPSOL","address":"CR A-2, 581,5","ilat":"41.52828","ilng":"1.88122","logoname":"repsol","idopeny":"0","recommended":"0","favorite":null,"distance":null},"141":{"idoffstation":"142","name":"E.S. LA ALMORAIMA","address":"CARRETERA A-369 KM. 11","ilat":"36.33694","ilng":"-5.4075","logoname":"no-logo","idopeny":"0","recommended":"0","favorite":null,"distance":null},"142":{"idoffstation":"143","name":"EUROCAM","address":"CALLE TRATADO DE PARIS, 6","ilat":"42.82378","ilng":"-2.77225","logoname":"no-logo","idopeny":"0","recommended":"0","favorite":null,"distance":null},"143":{"idoffstation":"144","name":"SABATER NURI CARBURANTS S","address":"CALLE BOSC TANCAT, S\/N","ilat":"41.49972","ilng":"2.13525","logoname":"no-logo","idopeny":"0","recommended":"0","favorite":null,"distance":null},"144":{"idoffstation":"145","name":"SABATER NURI CARBURANTS S","address":"CALLE SANTA ANNA, 133","ilat":"41.50028","ilng":"2.12497","logoname":"no-logo","idopeny":"0","recommended":"0","favorite":null,"distance":null},"145":{"idoffstation":"146","name":"PARTE","address":"AVENIDA CANTABRIA, 99","ilat":"43.00714","ilng":"-4.12875","logoname":"no-logo","idopeny":"0","recommended":"0","favorite":null,"distance":null},"146":{"idoffstation":"147","name":"ETXARRI OIL","address":"POLIGONO ZUMURDI\u00d1ETA, 15","ilat":"42.89964","ilng":"-2.07594","logoname":"no-logo","idopeny":"0","recommended":"0","favorite":null,"distance":null},"147":{"idoffstation":"148","name":"TEXAS-OIL","address":"CARRETERA CV-800 KM. 6,1","ilat":"38.46306","ilng":"-0.47142","logoname":"no-logo","idopeny":"0","recommended":"0","favorite":null,"distance":null},"148":{"idoffstation":"149","name":"HBC","address":"CARRETERA CRTA- LA CAMPANA-FUENTES DE ANDALUCIA SE-220 KM. 9,750","ilat":"37.4995","ilng":"-5.3725","logoname":"no-logo","idopeny":"0","recommended":"0","favorite":null,"distance":null},"149":{"idoffstation":"150","name":"COOPERATIVA DE CORBERA","address":"POLIGONO GREGAL, 13","ilat":"39.15597","ilng":"-0.34292","logoname":"no-logo","idopeny":"0","recommended":"0","favorite":null,"distance":null},"150":{"idoffstation":"151","name":"LIBRE","address":"A-2003 km 25,5","ilat":"36.62816","ilng":"-5.85751","logoname":"no-logo","idopeny":"0","recommended":"0","favorite":null,"distance":null},"151":{"idoffstation":"152","name":"BP","address":"CALLE GENERAL ASTILLEROS, 89","ilat":"35.27544","ilng":"-2.93722","logoname":"bp","idopeny":"0","recommended":"0","favorite":null,"distance":null},"152":{"idoffstation":"153","name":"OCEANO","address":"POLIGONO INDUSTRIAL VALLE DE G\u00dcIMAR MZ. 13, PC. 10, S\/N","ilat":"28.32519","ilng":"-16.37483","logoname":"no-logo","idopeny":"0","recommended":"0","favorite":null,"distance":null},"153":{"idoffstation":"154","name":"AGRINZA","address":"CM  HERRADO S\/N","ilat":"41.85365","ilng":"-5.40647","logoname":"no-logo","idopeny":"0","recommended":"0","favorite":null,"distance":null},"154":{"idoffstation":"155","name":"COOP. VIRGEN OLIVA","address":"CALLE PINAR, S\/N","ilat":"42.17653","ilng":"-1.19756","logoname":"no-logo","idopeny":"0","recommended":"0","favorite":null,"distance":null},"155":{"idoffstation":"156","name":"BALLENOIL","address":"CALLE UE3-SECTOR2.A3, 1","ilat":"39.389","ilng":"-0.40958","logoname":"no-logo","idopeny":"0","recommended":"0","favorite":null,"distance":null},"156":{"idoffstation":"157","name":"BALLENOIL","address":"CALLE FRAGUA, 16","ilat":"40.34164","ilng":"-3.86022","logoname":"no-logo","idopeny":"0","recommended":"0","favorite":null,"distance":null},"157":{"idoffstation":"158","name":"BALLENOIL","address":"CALLE VALENCIA, 206","ilat":"39.19833","ilng":"-0.43358","logoname":"no-logo","idopeny":"0","recommended":"0","favorite":null,"distance":null},"158":{"idoffstation":"159","name":"BALLENOIL","address":"CARRETERA ANTIGUA DE MALAGA KM. 138","ilat":"37.19067","ilng":"-3.63594","logoname":"no-logo","idopeny":"0","recommended":"0","favorite":null,"distance":null},"159":{"idoffstation":"160","name":"BALLENOIL","address":"CAMINO SAN MARTIN DE LA VEGA, 8","ilat":"40.30322","ilng":"-3.45547","logoname":"no-logo","idopeny":"0","recommended":"0","favorite":null,"distance":null},"160":{"idoffstation":"161","name":"BALLENOIL","address":"CALLE VICTOR OROVAL I TOMAS, 7","ilat":"39.12706","ilng":"-0.44247","logoname":"no-logo","idopeny":"0","recommended":"0","favorite":null,"distance":null},"161":{"idoffstation":"162","name":"ZONA KARTING","address":"CARRETERA N-240 KM. 77,800","ilat":"41.56433","ilng":"0.78825","logoname":"no-logo","idopeny":"0","recommended":"0","favorite":null,"distance":null},"162":{"idoffstation":"163","name":"KM 7.7","address":"CARRETERA N240 KM. 77,8","ilat":"41.56394","ilng":"0.78803","logoname":"no-logo","idopeny":"0","recommended":"0","favorite":null,"distance":null},"163":{"idoffstation":"164","name":"BALLENOIL","address":"CALLE SANTA ANA, 115","ilat":"41.50047","ilng":"2.12803","logoname":"no-logo","idopeny":"0","recommended":"0","favorite":null,"distance":null},"164":{"idoffstation":"165","name":"GANAR, S. COOP.","address":"AVENIDA MAELLA, 56,5","ilat":"41.22769","ilng":"-0.02994","logoname":"no-logo","idopeny":"0","recommended":"0","favorite":null,"distance":null},"165":{"idoffstation":"166","name":"BALLENOIL","address":"CALLE PROYECTO, 14","ilat":"39.16039","ilng":"-0.43117","logoname":"no-logo","idopeny":"0","recommended":"0","favorite":null,"distance":null},"166":{"idoffstation":"167","name":"BALLENOIL","address":"CALLE ANETO, 1","ilat":"40.27917","ilng":"-3.80181","logoname":"no-logo","idopeny":"0","recommended":"0","favorite":null,"distance":null},"167":{"idoffstation":"168","name":"SAN ANTONIO OIL","address":"POLIGONO ISAAC PERAL, 2","ilat":"39.55114","ilng":"-0.48256","logoname":"no-logo","idopeny":"0","recommended":"0","favorite":null,"distance":null},"168":{"idoffstation":"169","name":"BALLENOIL","address":"CALLE SANTO TOMAS URBANIZ. LA LEALA PARCELA 3 Y 4, 3","ilat":"36.60581","ilng":"-4.5305","logoname":"no-logo","idopeny":"0","recommended":"0","favorite":null,"distance":null},"169":{"idoffstation":"170","name":"BALLENOIL","address":"AVENIDA MADRID, 15","ilat":"41.55928","ilng":"2.03767","logoname":"no-logo","idopeny":"0","recommended":"0","favorite":null,"distance":null},"170":{"idoffstation":"171","name":"BALLENOIL","address":"CALLE CENSAL DEL, 17","ilat":"39.27139","ilng":"-0.46464","logoname":"no-logo","idopeny":"0","recommended":"0","favorite":null,"distance":null},"171":{"idoffstation":"172","name":"BALLENOIL","address":"CALLE ALFONSO XII, 20","ilat":"40.31447","ilng":"-3.86856","logoname":"no-logo","idopeny":"0","recommended":"0","favorite":null,"distance":null},"172":{"idoffstation":"173","name":"BALLENOIL","address":"CARRETERA ALZIRA KM. 13","ilat":"38.99622","ilng":"-0.51339","logoname":"no-logo","idopeny":"0","recommended":"0","favorite":null,"distance":null},"173":{"idoffstation":"174","name":"BALLENOIL","address":"CALLE LAGUNA, 88","ilat":"40.3325","ilng":"-3.81825","logoname":"no-logo","idopeny":"0","recommended":"0","favorite":null,"distance":null},"174":{"idoffstation":"175","name":"BALLENOIL","address":"CALLE TOLEDO CV VIA DE RONDA, SN","ilat":"40.22767","ilng":"-3.77872","logoname":"no-logo","idopeny":"0","recommended":"0","favorite":null,"distance":null},"175":{"idoffstation":"176","name":"BALLENOIL","address":"AVENIDA JARAMA (DEL), 17","ilat":"40.43278","ilng":"-3.53519","logoname":"no-logo","idopeny":"0","recommended":"0","favorite":null,"distance":null},"176":{"idoffstation":"177","name":"BALLENOIL","address":"CALLE FRESADORES (DE), 7","ilat":"40.30286","ilng":"-3.90517","logoname":"no-logo","idopeny":"0","recommended":"0","favorite":null,"distance":null},"177":{"idoffstation":"178","name":"BALLENOIL","address":"CALLE CERRO DEL MURMULLO, 1","ilat":"40.36525","ilng":"-3.58456","logoname":"no-logo","idopeny":"0","recommended":"0","favorite":null,"distance":null},"178":{"idoffstation":"179","name":"BALLENOIL","address":"POLIGONO DE BRENES CALLE H, 52","ilat":"37.46061","ilng":"-5.65653","logoname":"no-logo","idopeny":"0","recommended":"0","favorite":null,"distance":null},"179":{"idoffstation":"180","name":"BALLENOIL","address":"CALLE POLIESPORTIU, 5","ilat":"39.41031","ilng":"-0.39072","logoname":"no-logo","idopeny":"0","recommended":"0","favorite":null,"distance":null},"180":{"idoffstation":"181","name":"BALLENOIL","address":"CAMI SANT CRIST (DEL), 32","ilat":"41.53186","ilng":"2.42719","logoname":"no-logo","idopeny":"0","recommended":"0","favorite":null,"distance":null},"181":{"idoffstation":"182","name":"BALLENOIL","address":"RD PAISOS CATALANS 15","ilat":"41.55361","ilng":"2.43769","logoname":"no-logo","idopeny":"0","recommended":"0","favorite":null,"distance":null},"182":{"idoffstation":"183","name":"BALLENOIL","address":"CARRER DELS FUSTERS, 8","ilat":"39.36406","ilng":"-0.439","logoname":"no-logo","idopeny":"0","recommended":"0","favorite":null,"distance":null},"183":{"idoffstation":"184","name":"BALLENOIL","address":"CALLE MAS DEL JUTGE, 2","ilat":"39.43631","ilng":"-0.48703","logoname":"no-logo","idopeny":"0","recommended":"0","favorite":null,"distance":null},"184":{"idoffstation":"185","name":"BALLENOIL","address":"CARRETERA DE PULIANAS KM. S\/N","ilat":"37.21467","ilng":"-3.60961","logoname":"no-logo","idopeny":"0","recommended":"0","favorite":null,"distance":null},"185":{"idoffstation":"186","name":"BALLENOIL","address":"AVENIDA QUITAPESARES, 33","ilat":"40.35058","ilng":"-3.89739","logoname":"no-logo","idopeny":"0","recommended":"0","favorite":null,"distance":null},"186":{"idoffstation":"187","name":"BALLENOIL","address":"CARRETERA VICALVARO A ESTACION DE O`DONNELL KM. 22","ilat":"40.40517","ilng":"-3.59075","logoname":"no-logo","idopeny":"0","recommended":"0","favorite":null,"distance":null},"187":{"idoffstation":"188","name":"BALLENOIL","address":"CALLE VALLE DE TOBALINA, 24","ilat":"40.33622","ilng":"-3.71525","logoname":"no-logo","idopeny":"0","recommended":"0","favorite":null,"distance":null},"188":{"idoffstation":"189","name":"BALLENOIL","address":"CARRETERA BENET\u00daSSER KM. 57","ilat":"39.42669","ilng":"-0.40489","logoname":"no-logo","idopeny":"0","recommended":"0","favorite":null,"distance":null},"189":{"idoffstation":"190","name":"BALLENOIL","address":"CAMINO VELL DE DAIMUS, 1","ilat":"38.96578","ilng":"-0.17428","logoname":"no-logo","idopeny":"0","recommended":"0","favorite":null,"distance":null},"190":{"idoffstation":"191","name":"BALLENOIL","address":"PLAZA RAMON LLULL, 11","ilat":"41.53214","ilng":"2.10642","logoname":"no-logo","idopeny":"0","recommended":"0","favorite":null,"distance":null},"191":{"idoffstation":"192","name":"BALLENOIL","address":"CALLE MIGUEL HERNANDEZ, 116","ilat":"41.35114","ilng":"2.12094","logoname":"no-logo","idopeny":"0","recommended":"0","favorite":null,"distance":null},"192":{"idoffstation":"193","name":"BALLENOIL","address":"POLIGONO POL17 EL PEDREGAR INDUST., 1","ilat":"41.55539","ilng":"2.25567","logoname":"no-logo","idopeny":"0","recommended":"0","favorite":null,"distance":null},"193":{"idoffstation":"194","name":"BALLENOIL","address":"AVENIDA PIRINEOS (DE LOS), 21","ilat":"40.55197","ilng":"-3.61008","logoname":"no-logo","idopeny":"0","recommended":"0","favorite":null,"distance":null},"194":{"idoffstation":"195","name":"BALLENOIL","address":"AVENIDA SEGLE XXI, 44","ilat":"41.31764","ilng":"2.03103","logoname":"no-logo","idopeny":"0","recommended":"0","favorite":null,"distance":null},"195":{"idoffstation":"196","name":"BALLENOIL","address":"CALLE PROGRESO, 1","ilat":"37.16097","ilng":"-5.93867","logoname":"no-logo","idopeny":"0","recommended":"0","favorite":null,"distance":null},"196":{"idoffstation":"197","name":"BALLENOIL","address":"AVENIDA DEL COMERCIO, 77","ilat":"37.40317","ilng":"-5.70753","logoname":"no-logo","idopeny":"0","recommended":"0","favorite":null,"distance":null},"197":{"idoffstation":"198","name":"CEPSA","address":"CARRETERA A-131 KM. 40,800","ilat":"41.7145","ilng":"-0.04911","logoname":"cepsa","idopeny":"0","recommended":"0","favorite":null,"distance":null},"198":{"idoffstation":"199","name":"ALCALA+DE+LA+SELVA","address":"CARRETERA A-228 KM. 18,500","ilat":"40.36589","ilng":"-0.70594","logoname":"no-logo","idopeny":"0","recommended":"0","favorite":null,"distance":null},"199":{"idoffstation":"200","name":"ANESPI","address":"CALLE TIRSO DE MOLINA, 9","ilat":"41.35078","ilng":"2.0815","logoname":"no-logo","idopeny":"0","recommended":"0","favorite":null,"distance":null},"200":{"idoffstation":"201","name":"BALLENOIL","address":"CALLE CIUDAD DE ASUNCI\u00d3N, 12","ilat":"41.43736","ilng":"2.20097","logoname":"no-logo","idopeny":"0","recommended":"0","favorite":null,"distance":null},"201":{"idoffstation":"202","name":"BALLENOIL","address":"CARRETERA E-05\/N-IV KM. 553,800","ilat":"37.28097","ilng":"-5.93758","logoname":"no-logo","idopeny":"0","recommended":"0","favorite":null,"distance":null},"202":{"idoffstation":"203","name":"BALLENOIL","address":"CALLE TILO, 54","ilat":"40.13511","ilng":"-3.836","logoname":"no-logo","idopeny":"0","recommended":"0","favorite":null,"distance":null},"203":{"idoffstation":"204","name":"BALLENOIL","address":"CAMINO HIGUERAL EL, 28","ilat":"36.76575","ilng":"-4.09711","logoname":"no-logo","idopeny":"0","recommended":"0","favorite":null,"distance":null},"204":{"idoffstation":"205","name":"BALLENOIL","address":"CARRER EL PLA, 3","ilat":"41.40333","ilng":"2.02156","logoname":"no-logo","idopeny":"0","recommended":"0","favorite":null,"distance":null},"205":{"idoffstation":"206","name":"BALLENOIL","address":"CARRETERA HOSPITALET KM. 33","ilat":"41.35453","ilng":"2.08086","logoname":"no-logo","idopeny":"0","recommended":"0","favorite":null,"distance":null},"206":{"idoffstation":"207","name":"CRIEL","address":"POLIGONO NORTE, 1","ilat":"39.26731","ilng":"-0.45158","logoname":"no-logo","idopeny":"0","recommended":"0","favorite":null,"distance":null},"207":{"idoffstation":"208","name":"MEROIL","address":"CL-605 km 1","ilat":"40.94769","ilng":"-4.16425","logoname":"meroil","idopeny":"0","recommended":"0","favorite":null,"distance":null},"208":{"idoffstation":"209","name":"BP LOS ROSALES","address":"GLORIETA LOS JAZMINES, S\/N","ilat":"40.34044","ilng":"-3.86397","logoname":"bp","idopeny":"0","recommended":"0","favorite":null,"distance":null},"209":{"idoffstation":"210","name":"PETROPASS","address":"AVENIDA FERROCARRILES CATALANES, 240","ilat":"41.35378","ilng":"2.09289","logoname":"no-logo","idopeny":"0","recommended":"0","favorite":null,"distance":null},"210":{"idoffstation":"211","name":"BALLENOIL","address":"AVENIDA CONSTITUCIO, 83","ilat":"41.28469","ilng":"1.98542","logoname":"no-logo","idopeny":"0","recommended":"0","favorite":null,"distance":null},"211":{"idoffstation":"212","name":"BALLENOIL","address":"RONDA INDUSTRIA, 38","ilat":"41.51581","ilng":"2.13097","logoname":"no-logo","idopeny":"0","recommended":"0","favorite":null,"distance":null},"212":{"idoffstation":"213","name":"BALLENOIL","address":"SECTOR ARROYO ENMEDIO E4, 4","ilat":"36.39325","ilng":"-5.20278","logoname":"no-logo","idopeny":"0","recommended":"0","favorite":null,"distance":null},"213":{"idoffstation":"214","name":"BALLENOIL","address":"POLIGONO VALLDEGATA DRAPER UASU 2-1, ","ilat":"41.57533","ilng":"2.54144","logoname":"no-logo","idopeny":"0","recommended":"0","favorite":null,"distance":null},"214":{"idoffstation":"215","name":"BALLENOIL","address":"CALLE VEGA DE ARRIBA, 27","ilat":"43.23261","ilng":"-5.77964","logoname":"no-logo","idopeny":"0","recommended":"0","favorite":null,"distance":null},"215":{"idoffstation":"216","name":"MONAKO","address":"CARRETERA CARRETERA MU KM. 1","ilat":"38.11078","ilng":"-1.31419","logoname":"no-logo","idopeny":"0","recommended":"0","favorite":null,"distance":null},"216":{"idoffstation":"217","name":"BALLENOIL","address":"AVENIDA SIERRA DE GUADARRAMA, 10","ilat":"40.43789","ilng":"-4.01119","logoname":"no-logo","idopeny":"0","recommended":"0","favorite":null,"distance":null},"217":{"idoffstation":"218","name":"AVIA","address":"CTRA.DE SEGOVIA, S\/N","ilat":"40.94964","ilng":"-4.41406","logoname":"avia","idopeny":"0","recommended":"0","favorite":null,"distance":null},"218":{"idoffstation":"219","name":"E.S.GELIDA","address":"CALLE ANSELM CLAVE, 5176901","ilat":"41.43314","ilng":"1.86381","logoname":"no-logo","idopeny":"0","recommended":"0","favorite":null,"distance":null},"219":{"idoffstation":"220","name":"LOS ANGELES","address":"CTRA. ADANERO-GIJON km 201,750","ilat":"41.69848","ilng":"-4.83253","logoname":"no-logo","idopeny":"0","recommended":"0","favorite":null,"distance":null},"220":{"idoffstation":"221","name":"LOS DEMONIOS","address":"CTRA. ADANERO-GIJON km 199,500","ilat":"41.68329","ilng":"-4.81337","logoname":"no-logo","idopeny":"0","recommended":"0","favorite":null,"distance":null},"221":{"idoffstation":"222","name":"ECOSUMINISTROS","address":"POLIGONO SECTOR TOLEDOI PARCELA 7, 1","ilat":"39.92925","ilng":"-3.92781","logoname":"no-logo","idopeny":"0","recommended":"0","favorite":null,"distance":null},"222":{"idoffstation":"223","name":"BALLENOIL","address":"CALLE CABO RUFINO LAZARO, 7","ilat":"40.49967","ilng":"-3.88744","logoname":"no-logo","idopeny":"0","recommended":"0","favorite":null,"distance":null},"223":{"idoffstation":"224","name":"REPSOL","address":"CALLE LAGUNA, 36","ilat":"40.33553","ilng":"-3.81114","logoname":"repsol","idopeny":"0","recommended":"0","favorite":null,"distance":null},"224":{"idoffstation":"225","name":"BP LA PRESA (S.F. HENARES","address":"CALLE LA PRESA, S\/N","ilat":"40.43056","ilng":"-3.52892","logoname":"bp","idopeny":"0","recommended":"0","favorite":null,"distance":null},"225":{"idoffstation":"226","name":"BP ISIDORO","address":"AVENIDA JUAN CARLOS I, 1","ilat":"40.48542","ilng":"-3.38761","logoname":"bp","idopeny":"0","recommended":"0","favorite":null,"distance":null},"226":{"idoffstation":"227","name":"REPSOL","address":"CARRETERA CARRETERA NACIONAL 120 KM. 119","ilat":"42.34089","ilng":"-3.767","logoname":"repsol","idopeny":"0","recommended":"0","favorite":null,"distance":null},"227":{"idoffstation":"228","name":"CACENCA","address":"CAMI CAN VALLS, S\/N","ilat":"41.4465","ilng":"1.86525","logoname":"no-logo","idopeny":"0","recommended":"0","favorite":null,"distance":null},"228":{"idoffstation":"229","name":"PARQUES LOGISTICOS DEL SU","address":"POLIGONO ZAL BAHIA DE ALGECIRAS AREA EL FRESNO, ","ilat":"36.17169","ilng":"-5.4615","logoname":"no-logo","idopeny":"0","recommended":"0","favorite":null,"distance":null},"229":{"idoffstation":"230","name":"ESTACION DE SERVICIO EL C","address":"CARRETERA DE TRASSIERRA KM. 8","ilat":"37.90269","ilng":"-4.87217","logoname":"no-logo","idopeny":"0","recommended":"0","favorite":null,"distance":null},"230":{"idoffstation":"231","name":"SARAS","address":"POLG.IND. \u0022EL BUJEO\u0022 PARCELA 41","ilat":"37.36253","ilng":"-4.84339","logoname":"saras","idopeny":"0","recommended":"0","favorite":null,"distance":null},"231":{"idoffstation":"232","name":"(SIN ROTULO)","address":"CTRA. PALOMAS, S\/N (CRUCE ROVOA CIRCUNVALACION B-6 km 1,881)","ilat":"38.57386","ilng":"-6.33714","logoname":"no-logo","idopeny":"0","recommended":"0","favorite":null,"distance":null},"232":{"idoffstation":"233","name":"CEDYC","address":"CARRETERA GENERAL (BO\u00d1AR-CABA\u00d1AQUINTA km 0,165)","ilat":"43.01447","ilng":"-5.27653","logoname":"no-logo","idopeny":"0","recommended":"0","favorite":null,"distance":null},"233":{"idoffstation":"234","name":"CEPSA","address":"AVDA. LIBERTAD, S\/N (CM-4202 km 8)","ilat":"38.68108","ilng":"-4.79306","logoname":"cepsa","idopeny":"0","recommended":"0","favorite":null,"distance":null},"234":{"idoffstation":"235","name":"E.S MARIOLA S.L","address":"CARRETERA VALENCIA ADEMUZ KM. 13,1","ilat":"39.55997","ilng":"-0.49592","logoname":"no-logo","idopeny":"0","recommended":"0","favorite":null,"distance":null},"235":{"idoffstation":"236","name":"REPSOL","address":"CALLE ANTONIO LOPEZ BORRASCA, 2","ilat":"40.96222","ilng":"-5.69833","logoname":"repsol","idopeny":"0","recommended":"0","favorite":null,"distance":null},"236":{"idoffstation":"237","name":"LA GALLADA","address":"LUGAR A GALLADA-SAN XOAN DE PI\u00d1EIRO, 0","ilat":"43.44231","ilng":"-8.20567","logoname":"no-logo","idopeny":"0","recommended":"0","favorite":null,"distance":null},"237":{"idoffstation":"238","name":"EESS GASOLEOS FERRER S.L","address":"POLIGONO CASTELL DE FERRO, FASE III, KM, 353,5","ilat":"36.73147","ilng":"-3.35769","logoname":"no-logo","idopeny":"0","recommended":"0","favorite":null,"distance":null},"238":{"idoffstation":"239","name":"CEPSA","address":"AVENIDA DE ANDALUCIA, S\/N","ilat":"38.35958","ilng":"-2.74414","logoname":"cepsa","idopeny":"0","recommended":"0","favorite":null,"distance":null},"239":{"idoffstation":"240","name":"(SIN ROTULO)","address":"CARRETERA N-502 KM. 216,500","ilat":"39.28122","ilng":"-5.10608","logoname":"no-logo","idopeny":"0","recommended":"0","favorite":null,"distance":null},"240":{"idoffstation":"241","name":"REPSOL","address":"AVENIDA DE LAS TERMAS, 48","ilat":"40.31917","ilng":"-5.85803","logoname":"repsol","idopeny":"0","recommended":"0","favorite":null,"distance":null},"241":{"idoffstation":"242","name":"CAMPSA","address":"CAMINO VECINAL VILLANUEVA-PALANQUINOS, S\/N","ilat":"42.39881","ilng":"-5.52992","logoname":"campsa","idopeny":"0","recommended":"0","favorite":null,"distance":null},"242":{"idoffstation":"243","name":"REPSOL","address":"SAN GENJO, 2","ilat":"40.48319","ilng":"-3.70536","logoname":"repsol","idopeny":"0","recommended":"0","favorite":null,"distance":null},"243":{"idoffstation":"244","name":"CEPSA","address":"N-IIIA km 186","ilat":"39.48364","ilng":"-1.10261","logoname":"cepsa","idopeny":"0","recommended":"0","favorite":null,"distance":null},"244":{"idoffstation":"245","name":"VALCARCE","address":"N-120 km 429","ilat":"42.54464","ilng":"-6.78214","logoname":"no-logo","idopeny":"0","recommended":"0","favorite":null,"distance":null},"245":{"idoffstation":"246","name":"SHELL","address":"AVENIDA DE SANTIAGO, 86","ilat":"38.00233","ilng":"-1.12147","logoname":"shell","idopeny":"0","recommended":"0","favorite":null,"distance":null},"246":{"idoffstation":"247","name":"REPSOL","address":"CARRETERA LA CORU\u00d1A-FINISTERRE KM. 38,50","ilat":"43.18961","ilng":"-8.73228","logoname":"repsol","idopeny":"0","recommended":"0","favorite":null,"distance":null},"247":{"idoffstation":"248","name":"REPSOL GARRIMARTI","address":"CL L-700 ESTACION DE SERVICIO 17","ilat":"38.38494","ilng":"-2.58606","logoname":"repsol","idopeny":"0","recommended":"0","favorite":null,"distance":null},"248":{"idoffstation":"249","name":"CEPSA","address":"CALLE SAN SEBASTIAN, 2","ilat":"37.39061","ilng":"-4.779","logoname":"cepsa","idopeny":"0","recommended":"0","favorite":null,"distance":null},"249":{"idoffstation":"250","name":"JUIMARAL","address":"CARRETERA ZAFRA KM. 19,500","ilat":"38.49347","ilng":"-6.68403","logoname":"no-logo","idopeny":"0","recommended":"0","favorite":null,"distance":null},"250":{"idoffstation":"251","name":"ANTEQUERA","address":"POLIGONO PARQUE EMPRESARIAL--CRUCE DEL ROMERAL, 0","ilat":"37.03442","ilng":"-4.52781","logoname":"no-logo","idopeny":"0","recommended":"0","favorite":null,"distance":null},"251":{"idoffstation":"252","name":"CAMPSA","address":"CARRETERA GUADALUPE KM. 5","ilat":"38.99978","ilng":"-5.79894","logoname":"campsa","idopeny":"0","recommended":"0","favorite":null,"distance":null},"252":{"idoffstation":"253","name":"MEROIL","address":"CARRETERA DE ACCESO A CHILLU\u00c9VAR KM. 11,800","ilat":"37.98958","ilng":"-3.07769","logoname":"meroil","idopeny":"0","recommended":"0","favorite":null,"distance":null},"253":{"idoffstation":"254","name":"SAN ISIDRO","address":"CARRETERA JEREZ CARTAGENA A-384 KM. 15,100","ilat":"36.84406","ilng":"-5.69167","logoname":"no-logo","idopeny":"0","recommended":"0","favorite":null,"distance":null},"254":{"idoffstation":"255","name":"REPSOL","address":"PG P.I. LARACHE,PARC.93, S.N.","ilat":"38.97778","ilng":"-3.93597","logoname":"repsol","idopeny":"0","recommended":"0","favorite":null,"distance":null},"255":{"idoffstation":"256","name":"CEPSA","address":"AVENIDA ANDALUCIA, 69","ilat":"37.14783","ilng":"-3.57789","logoname":"cepsa","idopeny":"0","recommended":"0","favorite":null,"distance":null},"256":{"idoffstation":"257","name":"BP OIL","address":"AVENIDA PARIS, 6","ilat":"41.81639","ilng":"3.057","logoname":"bp","idopeny":"0","recommended":"0","favorite":null,"distance":null},"257":{"idoffstation":"258","name":"MARINA DE LA PLANA","address":"PARTIDA LA MARINA, 307","ilat":"38.14361","ilng":"-0.66442","logoname":"no-logo","idopeny":"0","recommended":"0","favorite":null,"distance":null},"258":{"idoffstation":"259","name":"REPSOL","address":"AVENIDA LA ILUSTRACION, 1","ilat":"41.62925","ilng":"-0.93436","logoname":"repsol","idopeny":"0","recommended":"0","favorite":null,"distance":null},"259":{"idoffstation":"260","name":"E.S. LA CRUZ DEL GALLO","address":"CARRETERA HUELVA KM. 31","ilat":"37.49714","ilng":"-7.26844","logoname":"no-logo","idopeny":"0","recommended":"0","favorite":null,"distance":null},"260":{"idoffstation":"261","name":"CEPSA","address":"PASEO ALCOBENDAS (DE), 10","ilat":"40.52789","ilng":"-3.62231","logoname":"cepsa","idopeny":"0","recommended":"0","favorite":null,"distance":null},"261":{"idoffstation":"262","name":"BP RINCON DE LA VICTORIA","address":"CARRETERA N 340 KM. 252","ilat":"36.72319","ilng":"-4.29689","logoname":"bp","idopeny":"0","recommended":"0","favorite":null,"distance":null},"262":{"idoffstation":"263","name":"REPSOL","address":"CARRETERA LINARES ORCERA KM. 102","ilat":"38.24806","ilng":"-2.72753","logoname":"repsol","idopeny":"0","recommended":"0","favorite":null,"distance":null},"263":{"idoffstation":"264","name":"SAN JOSE","address":"CR HUERCAL-OVERA-VILLAC. KM  70,1","ilat":"37.37956","ilng":"-2.1355","logoname":"no-logo","idopeny":"0","recommended":"0","favorite":null,"distance":null},"264":{"idoffstation":"265","name":"GOMEZ Y SIRVENT","address":"PARTIDA LA REDONDA, S\/N","ilat":"38.09403","ilng":"-0.66075","logoname":"no-logo","idopeny":"0","recommended":"0","favorite":null,"distance":null},"265":{"idoffstation":"266","name":"GALP","address":"SANTIAGO-NOIA km 7,51","ilat":"42.86436","ilng":"-8.62917","logoname":"galp","idopeny":"0","recommended":"0","favorite":null,"distance":null},"266":{"idoffstation":"267","name":"BP","address":"CARRETERA NACIONAL 634 KM. 224","ilat":"43.35428","ilng":"-5.96619","logoname":"bp","idopeny":"0","recommended":"0","favorite":null,"distance":null},"267":{"idoffstation":"268","name":"PETRONOR","address":"CARRETERA CABRA-BAENA KM. 92","ilat":"37.55261","ilng":"-4.36172","logoname":"no-logo","idopeny":"0","recommended":"0","favorite":null,"distance":null},"268":{"idoffstation":"269","name":"BP OIL ESPANA","address":"AVENIDA DE GRANADA, 50","ilat":"37.80903","ilng":"-2.54197","logoname":"bp","idopeny":"0","recommended":"0","favorite":null,"distance":null},"269":{"idoffstation":"270","name":"REPSOL","address":"CARRETERA COLMENAR VIEJO KM. 10,5","ilat":"40.4995","ilng":"-3.69781","logoname":"repsol","idopeny":"0","recommended":"0","favorite":null,"distance":null},"270":{"idoffstation":"271","name":"E.S NAUT ARAN","address":"CARRETERA C-28 KM. 29,5","ilat":"42.70022","ilng":"0.86258","logoname":"no-logo","idopeny":"0","recommended":"0","favorite":null,"distance":null},"271":{"idoffstation":"272","name":"BP","address":"AVENIDA PONTEVEDRA, 24","ilat":"42.68794","ilng":"-8.49606","logoname":"bp","idopeny":"0","recommended":"0","favorite":null,"distance":null},"272":{"idoffstation":"273","name":"CAMPSA","address":"CR N-433, 119,9","ilat":"37.96892","ilng":"-7.21567","logoname":"campsa","idopeny":"0","recommended":"0","favorite":null,"distance":null},"273":{"idoffstation":"274","name":"REPSOL","address":"CARRETERA SAN QUINTIN KM. 9,2","ilat":"41.42561","ilng":"1.78106","logoname":"repsol","idopeny":"0","recommended":"0","favorite":null,"distance":null},"274":{"idoffstation":"275","name":"CEPSA","address":"CALLE BUENOS AIRES, 10","ilat":"36.95564","ilng":"-4.12214","logoname":"cepsa","idopeny":"0","recommended":"0","favorite":null,"distance":null},"275":{"idoffstation":"276","name":"CEPSA","address":"POLIGONO LA CECA, 23","ilat":"38.03392","ilng":"-4.05631","logoname":"cepsa","idopeny":"0","recommended":"0","favorite":null,"distance":null},"276":{"idoffstation":"277","name":"JENA","address":"AVENIDA IGNACIO WALLIS, 58","ilat":"38.91444","ilng":"1.42922","logoname":"no-logo","idopeny":"0","recommended":"0","favorite":null,"distance":null},"277":{"idoffstation":"278","name":"CEPSA","address":"AVENIDA ALICUN, 62","ilat":"36.77175","ilng":"-2.61336","logoname":"cepsa","idopeny":"0","recommended":"0","favorite":null,"distance":null},"278":{"idoffstation":"279","name":"CEPSA","address":"AVENIDA CARLOS V, S\/N","ilat":"39.48586","ilng":"2.89522","logoname":"cepsa","idopeny":"0","recommended":"0","favorite":null,"distance":null},"279":{"idoffstation":"280","name":"TGAS - SANTA CATALINA","address":"CARRETERA TF-5 SANTA CRUZ - ICOD KM. 49","ilat":"28.38975","ilng":"-16.66503","logoname":"no-logo","idopeny":"0","recommended":"0","favorite":null,"distance":null},"280":{"idoffstation":"281","name":"PCAN","address":"AVENIDA HIPOLITO SINFORIANO,8, 8","ilat":"28.37411","ilng":"-16.65064","logoname":"no-logo","idopeny":"0","recommended":"0","favorite":null,"distance":null},"281":{"idoffstation":"282","name":"TGAS-TU TREBOL","address":"POLIGONO EL MAYORAZGO, S\/N","ilat":"28.44208","ilng":"-16.28406","logoname":"no-logo","idopeny":"0","recommended":"0","favorite":null,"distance":null},"282":{"idoffstation":"283","name":"TGAS-TU TREBOL","address":"AUTOPISTA TF1 AUTOPISTA SUR A ARME\u00d1IME, CRUCE LA CALETA KM. S\/N","ilat":"28.12011","ilng":"-16.73989","logoname":"no-logo","idopeny":"0","recommended":"0","favorite":null,"distance":null},"283":{"idoffstation":"284","name":"ESTACION DE SERVICIOS EL","address":"CARRETERA CARRETERA DEL NORTE KM. 43,60","ilat":"28.39308","ilng":"-16.61822","logoname":"no-logo","idopeny":"0","recommended":"0","favorite":null,"distance":null},"284":{"idoffstation":"285","name":"TGAS","address":"CARRETERA GENERAL DEL NORTE KM. 79","ilat":"28.47747","ilng":"-16.41178","logoname":"no-logo","idopeny":"0","recommended":"0","favorite":null,"distance":null},"285":{"idoffstation":"286","name":"PCAN","address":"AVENIDA LOS MENCEYES, 223","ilat":"28.47022","ilng":"-16.296","logoname":"no-logo","idopeny":"0","recommended":"0","favorite":null,"distance":null},"286":{"idoffstation":"287","name":"SHELL LA LAGUNA","address":"AVENIDA CALVO SOTELO, S\/N","ilat":"28.4815","ilng":"-16.31361","logoname":"shell","idopeny":"0","recommended":"0","favorite":null,"distance":null},"287":{"idoffstation":"288","name":"DISA LAS CALETILLAS","address":"AVENIDA AVDA. MARITIMA, 198","ilat":"28.38236","ilng":"-16.36192","logoname":"disa","idopeny":"0","recommended":"0","favorite":null,"distance":null},"288":{"idoffstation":"289","name":"PCAN","address":"CARRETERA TF-28 GENERAL DEL SUR KM. 9,9","ilat":"28.39947","ilng":"-16.35089","logoname":"no-logo","idopeny":"0","recommended":"0","favorite":null,"distance":null},"289":{"idoffstation":"290","name":"TGAS","address":"PLAZA SAN CRISTOBAL, 9","ilat":"28.48464","ilng":"-16.31378","logoname":"no-logo","idopeny":"0","recommended":"0","favorite":null,"distance":null},"290":{"idoffstation":"291","name":"DISA CANDELARIA","address":"CALLE LAS BICHAS, S\/N","ilat":"28.35683","ilng":"-16.37194","logoname":"disa","idopeny":"0","recommended":"0","favorite":null,"distance":null},"291":{"idoffstation":"292","name":"DISA LAS CHUMBERAS","address":"POL. IND. LOS MAJUELOS km CENTRO COMERCIAL M","ilat":"28.45811","ilng":"-16.30431","logoname":"disa","idopeny":"0","recommended":"0","favorite":null,"distance":null},"292":{"idoffstation":"293","name":"REPSOL","address":"CARRETERA TF-5 KM. 46,3","ilat":"28.39397","ilng":"-16.64233","logoname":"repsol","idopeny":"0","recommended":"0","favorite":null,"distance":null},"293":{"idoffstation":"294","name":"TGAS","address":"CARRETERA TF-12 LAS CANTERAS KM. 0,5","ilat":"28.51522","ilng":"-16.30189","logoname":"no-logo","idopeny":"0","recommended":"0","favorite":null,"distance":null},"294":{"idoffstation":"295","name":"TGAS","address":"CARRETERA TF64 GRANADILLA - EL MEDANO KM. 7,7","ilat":"28.06889","ilng":"-16.55325","logoname":"no-logo","idopeny":"0","recommended":"0","favorite":null,"distance":null},"295":{"idoffstation":"296","name":"PCAN","address":"CARRETERA TF 636 SAN ISIDRO - CHIMICHE KM. 4","ilat":"28.10353","ilng":"-16.55136","logoname":"no-logo","idopeny":"0","recommended":"0","favorite":null,"distance":null},"296":{"idoffstation":"297","name":"TGAS","address":"CARRETERA TF-265 KM. 2","ilat":"28.45686","ilng":"-16.32981","logoname":"no-logo","idopeny":"0","recommended":"0","favorite":null,"distance":null},"297":{"idoffstation":"298","name":"TGAS","address":"CARRETERA TF-13 LA LAGUNA - BAJAMAR KM. 6","ilat":"28.51997","ilng":"-16.33503","logoname":"no-logo","idopeny":"0","recommended":"0","favorite":null,"distance":null},"298":{"idoffstation":"299","name":"PCAN","address":"AUTOPISTA AUTOPISTA TENERIFE SUR KM. 44,2","ilat":"28.13081","ilng":"-16.46481","logoname":"no-logo","idopeny":"0","recommended":"0","favorite":null,"distance":null},"299":{"idoffstation":"300","name":"ON365","address":"MUELLE ALFAU, S\/N","ilat":"35.89472","ilng":"-5.30086","logoname":"no-logo","idopeny":"0","recommended":"0","favorite":null,"distance":null},"300":{"idoffstation":"301","name":"DISA ICOD DE LOS VINOS","address":"AVENIDA PRINCIPES DE ESPA\u00d1A, 40","ilat":"28.37225","ilng":"-16.71019","logoname":"disa","idopeny":"0","recommended":"0","favorite":null,"distance":null},"301":{"idoffstation":"302","name":"SHELL ICOD DE LOS VINOS","address":"CALLE FRANCISCO MIRANDA, 1","ilat":"28.36853","ilng":"-16.71969","logoname":"shell","idopeny":"0","recommended":"0","favorite":null,"distance":null},"302":{"idoffstation":"303","name":"CEPSA","address":"CARRETERA TF-82 KM. 53,6","ilat":"28.37897","ilng":"-16.70072","logoname":"cepsa","idopeny":"0","recommended":"0","favorite":null,"distance":null},"303":{"idoffstation":"304","name":"CEPSA ICOD DE LOS VINOS","address":"CARRETERA GENERAL C-820 KM. 52,7","ilat":"28.37922","ilng":"-16.69406","logoname":"cepsa","idopeny":"0","recommended":"0","favorite":null,"distance":null},"304":{"idoffstation":"305","name":"REPSOL","address":"CARRETERA TF-82 KM. 8","ilat":"28.35633","ilng":"-16.77714","logoname":"repsol","idopeny":"0","recommended":"0","favorite":null,"distance":null},"305":{"idoffstation":"306","name":"REPSOL","address":"AUTOPISTA TF-5 KM. 22,5","ilat":"28.46444","ilng":"-16.43864","logoname":"repsol","idopeny":"0","recommended":"0","favorite":null,"distance":null},"306":{"idoffstation":"307","name":"DISA","address":"AVENIDA JUAN MENDEZ EL VIEJO, S\/N","ilat":"28.36989","ilng":"-16.84825","logoname":"disa","idopeny":"0","recommended":"0","favorite":null,"distance":null},"307":{"idoffstation":"308","name":"E.S. CEPSA LA CALETA","address":"CR ICOD-BUENAVISTA, KM. 8,9","ilat":"28.37008","ilng":"-16.7925","logoname":"no-logo","idopeny":"0","recommended":"0","favorite":null,"distance":null},"308":{"idoffstation":"309","name":"DISA RED","address":"CALLE FELIX BENITEZ DE LUGO S\/N LOS MORALITOS (GENERAL TF-142 KM 11), 28","ilat":"28.36569","ilng":"-16.81953","logoname":"disa","idopeny":"0","recommended":"0","favorite":null,"distance":null},"309":{"idoffstation":"310","name":"REPSOL","address":"CAMINO SAN MIGUEL DE GENETO, 148","ilat":"28.45608","ilng":"-16.31689","logoname":"repsol","idopeny":"0","recommended":"0","favorite":null,"distance":null},"310":{"idoffstation":"311","name":"PCAN","address":"CARRETERA TF24 LA LAGUNA - EL PORTILLO KM. 5,5","ilat":"28.456","ilng":"-16.36214","logoname":"no-logo","idopeny":"0","recommended":"0","favorite":null,"distance":null},"311":{"idoffstation":"312","name":"PCAN","address":"CARRETERA TF-24 LA LAGUNA-EL PORTILLO KM. 2,2","ilat":"28.47397","ilng":"-16.33667","logoname":"no-logo","idopeny":"0","recommended":"0","favorite":null,"distance":null},"312":{"idoffstation":"313","name":"DISA LOS BARROS","address":"CALLE LOS BARROS, 33","ilat":"28.39008","ilng":"-16.58217","logoname":"disa","idopeny":"0","recommended":"0","favorite":null,"distance":null},"313":{"idoffstation":"314","name":"PCAN","address":"CALLE LOS BARROS, 30","ilat":"28.39003","ilng":"-16.58189","logoname":"no-logo","idopeny":"0","recommended":"0","favorite":null,"distance":null},"314":{"idoffstation":"315","name":"CEPSA MEDANO","address":"SAN ISIDRO-EL M\u00c9DANO km 9.6","ilat":"28.05622","ilng":"-16.54642","logoname":"cepsa","idopeny":"0","recommended":"0","favorite":null,"distance":null},"315":{"idoffstation":"316","name":"CEPSA LA CANADA","address":"CARRETERA LAS CA\u00d1ADAS KM. 5","ilat":"28.38825","ilng":"-16.51519","logoname":"cepsa","idopeny":"0","recommended":"0","favorite":null,"distance":null},"316":{"idoffstation":"317","name":"REPSOL","address":"CARRETERA TF-324 KM. 2","ilat":"28.37961","ilng":"-16.53739","logoname":"repsol","idopeny":"0","recommended":"0","favorite":null,"distance":null},"317":{"idoffstation":"318","name":"DISA","address":"PLAZA LA PAZ, S\/N","ilat":"28.39436","ilng":"-16.51986","logoname":"disa","idopeny":"0","recommended":"0","favorite":null,"distance":null},"318":{"idoffstation":"319","name":"REPSOL","address":"CARRETERA TF-326 KM. 4,159","ilat":"28.36269","ilng":"-16.56983","logoname":"repsol","idopeny":"0","recommended":"0","favorite":null,"distance":null},"319":{"idoffstation":"320","name":"TGAS","address":"CRTRA. VALLE SAN LORENZO - LAS GALLETAS km 11,1","ilat":"28.01186","ilng":"-16.66264","logoname":"no-logo","idopeny":"0","recommended":"0","favorite":null,"distance":null},"320":{"idoffstation":"321","name":"REPSOL","address":"CARRETERA GENERAL DEL SUR KM. 62","ilat":"28.15708","ilng":"-16.50967","logoname":"repsol","idopeny":"0","recommended":"0","favorite":null,"distance":null},"321":{"idoffstation":"322","name":"REPSOL","address":"CALLE LIBERTAD, S\/N","ilat":"28.46469","ilng":"-16.30486","logoname":"repsol","idopeny":"0","recommended":"0","favorite":null,"distance":null},"322":{"idoffstation":"323","name":"CEPSA","address":"AUTOVIA TF-1 KM. 34","ilat":"28.2135","ilng":"-16.42331","logoname":"cepsa","idopeny":"0","recommended":"0","favorite":null,"distance":null},"323":{"idoffstation":"324","name":"CEPSA","address":"AVENIDA GONZALEZ TABLAS, S\/N","ilat":"35.88997","ilng":"-5.31944","logoname":"cepsa","idopeny":"0","recommended":"0","favorite":null,"distance":null},"324":{"idoffstation":"325","name":"CEPSA","address":"AVENIDA MUELLE CA\u00d1ONERO DATO, 10","ilat":"35.89156","ilng":"-5.31956","logoname":"cepsa","idopeny":"0","recommended":"0","favorite":null,"distance":null},"325":{"idoffstation":"326","name":"DISA","address":"AVENIDA TENIENTE GRAL MUSLERA, S\/N","ilat":"35.89322","ilng":"-5.32867","logoname":"disa","idopeny":"0","recommended":"0","favorite":null,"distance":null},"326":{"idoffstation":"327","name":"SHELL MUELLE DATO","address":"AVENIDA MUELLE DATO, 8","ilat":"35.89233","ilng":"-5.32056","logoname":"shell","idopeny":"0","recommended":"0","favorite":null,"distance":null},"327":{"idoffstation":"328","name":"SHELL CATENA","address":"AVENIDA MARTINEZ CATENA, 6","ilat":"35.8795","ilng":"-5.33678","logoname":"shell","idopeny":"0","recommended":"0","favorite":null,"distance":null},"328":{"idoffstation":"329","name":"CEPSA","address":"AVENIDA MUELLE CA\u00d1ONERO DATO, S\/N","ilat":"35.89406","ilng":"-5.32292","logoname":"cepsa","idopeny":"0","recommended":"0","favorite":null,"distance":null},"329":{"idoffstation":"330","name":"CEPSA","address":"AVENIDA MARTINEZ CATENA S\/N-FRENTE PLAYA DEL CHORRILLO, S,N","ilat":"35.88525","ilng":"-5.32292","logoname":"cepsa","idopeny":"0","recommended":"0","favorite":null,"distance":null},"330":{"idoffstation":"331","name":"DISA","address":"AVENIDA CA\u00d1ONERO DATO, 10","ilat":"35.89256","ilng":"-5.32092","logoname":"disa","idopeny":"0","recommended":"0","favorite":null,"distance":null},"331":{"idoffstation":"332","name":"SHELL SANTA URSULA","address":"CARRETERA GENERAL DEL NORTE KM. 31","ilat":"28.42522","ilng":"-16.49433","logoname":"shell","idopeny":"0","recommended":"0","favorite":null,"distance":null},"332":{"idoffstation":"333","name":"SHELL","address":"CARRETERA CTRA. GRAL. DEL  NORTE KM. 27","ilat":"28.43608","ilng":"-16.46678","logoname":"shell","idopeny":"0","recommended":"0","favorite":null,"distance":null},"333":{"idoffstation":"334","name":"REPSOL","address":"CARRETERA VIEJA KM. 213","ilat":"28.42872","ilng":"-16.48467","logoname":"repsol","idopeny":"0","recommended":"0","favorite":null,"distance":null},"334":{"idoffstation":"335","name":"REPSOL","address":"CARRETERA GRAL TF-66(GUAZA-GALLE KM. 2","ilat":"28.05208","ilng":"-16.67794","logoname":"repsol","idopeny":"0","recommended":"0","favorite":null,"distance":null},"335":{"idoffstation":"336","name":"PCAN ARRIETA","address":"CARRETERA GENERAL DEL NORTE KM. 16,1","ilat":"29.13172","ilng":"-13.46486","logoname":"no-logo","idopeny":"0","recommended":"0","favorite":null,"distance":null},"336":{"idoffstation":"337","name":"SANTANA DOMINGUEZ, S.L.","address":"CALLE ISORA 2, ESQUINA LOS MOCANES 10, 2","ilat":"27.92603","ilng":"-15.40289","logoname":"no-logo","idopeny":"0","recommended":"0","favorite":null,"distance":null},"337":{"idoffstation":"338","name":"REPSOL","address":"CARRETERA TF-16 KM. 4,4","ilat":"28.51056","ilng":"-16.39858","logoname":"repsol","idopeny":"0","recommended":"0","favorite":null,"distance":null},"338":{"idoffstation":"339","name":"CEPSA","address":"CARRETERA GENERAL DE PALO BLANCO N\u00ba 77 KM. 1","ilat":"28.37256","ilng":"-16.575","logoname":"cepsa","idopeny":"0","recommended":"0","favorite":null,"distance":null},"339":{"idoffstation":"340","name":"PCAN","address":"CARRETERA TF47 ARME\u00d1IME-PUERTO SANTIAGO KM. 15","ilat":"28.20506","ilng":"-16.82989","logoname":"no-logo","idopeny":"0","recommended":"0","favorite":null,"distance":null},"340":{"idoffstation":"341","name":"MERCASOSA","address":"CALLE PROFESOR JUAN TADEO CABRERA, 20","ilat":"28.49744","ilng":"-13.86258","logoname":"no-logo","idopeny":"0","recommended":"0","favorite":null,"distance":null},"341":{"idoffstation":"342","name":"PCAN GASOLINERA GIL","address":"CALLE ALMIRANTE LALLERMAND, 31","ilat":"28.50075","ilng":"-13.85225","logoname":"no-logo","idopeny":"0","recommended":"0","favorite":null,"distance":null},"342":{"idoffstation":"343","name":"DISA","address":"CARRETERA LA OLIVA KM. 2,7","ilat":"28.51683","ilng":"-13.8775","logoname":"disa","idopeny":"0","recommended":"0","favorite":null,"distance":null},"343":{"idoffstation":"344","name":"DISA","address":"CARRETERA LA OLIVA KM. 2,7","ilat":"28.51683","ilng":"-13.87631","logoname":"disa","idopeny":"0","recommended":"0","favorite":null,"distance":null},"344":{"idoffstation":"345","name":"REPSOL","address":"CR FV-1, 2","ilat":"28.52217","ilng":"-13.84469","logoname":"repsol","idopeny":"0","recommended":"0","favorite":null,"distance":null},"345":{"idoffstation":"346","name":"REPSOL","address":"CALLE CASILLAS DEL ANGEL, 132","ilat":"28.52078","ilng":"-13.84653","logoname":"repsol","idopeny":"0","recommended":"0","favorite":null,"distance":null},"346":{"idoffstation":"347","name":"REPSOL","address":"CR  FV-2 P.K. 11 M.D. ( PUERTO DEL","ilat":"28.38781","ilng":"-13.86472","logoname":"repsol","idopeny":"0","recommended":"0","favorite":null,"distance":null},"347":{"idoffstation":"348","name":"CEPSA ARMENIME","address":"TF-6237, MD, PK km 4.8","ilat":"28.14097","ilng":"-16.78489","logoname":"cepsa","idopeny":"0","recommended":"0","favorite":null,"distance":null},"348":{"idoffstation":"349","name":"SHELL MERCALASPALMAS","address":"CARRETERA CTRA. CUESTA RAMON KM. 1","ilat":"28.04053","ilng":"-15.41764","logoname":"shell","idopeny":"0","recommended":"0","favorite":null,"distance":null},"349":{"idoffstation":"350","name":"CEPSA","address":"AUTOVIA TF-1 KM. 39","ilat":"28.16908","ilng":"-16.43328","logoname":"cepsa","idopeny":"0","recommended":"0","favorite":null,"distance":null},"350":{"idoffstation":"351","name":"REPSOL","address":"CARRETERA TF-1 KM. 54","ilat":"28.07258","ilng":"-16.535","logoname":"repsol","idopeny":"0","recommended":"0","favorite":null,"distance":null},"351":{"idoffstation":"352","name":"REPSOL","address":"CARRETERA TF-1 KM. 54","ilat":"28.07333","ilng":"-16.53472","logoname":"repsol","idopeny":"0","recommended":"0","favorite":null,"distance":null},"352":{"idoffstation":"353","name":"REPSOL","address":"V\u00cdA INTERIOR DEL PUERTO, S\/N","ilat":"28.49644","ilng":"-16.20864","logoname":"repsol","idopeny":"0","recommended":"0","favorite":null,"distance":null},"353":{"idoffstation":"354","name":"CEPSA AGUA GARCIA","address":"CALLE CAMINO REAL, 163","ilat":"28.46953","ilng":"-16.396","logoname":"cepsa","idopeny":"0","recommended":"0","favorite":null,"distance":null},"354":{"idoffstation":"355","name":"CEPSA","address":"CR TF-172, 0,9","ilat":"28.47594","ilng":"-16.43492","logoname":"cepsa","idopeny":"0","recommended":"0","favorite":null,"distance":null},"355":{"idoffstation":"356","name":"REPSOL","address":null,"ilat":"28.49067","ilng":"-16.3545","logoname":"repsol","idopeny":"0","recommended":"0","favorite":null,"distance":null},"356":{"idoffstation":"357","name":"REPSOL","address":null,"ilat":"28.51817","ilng":"-16.389","logoname":"repsol","idopeny":"0","recommended":"0","favorite":null,"distance":null},"357":{"idoffstation":"358","name":"CEPSA","address":"AVENIDA OBISPO PEREZ CACERES, 45","ilat":"28.31303","ilng":"-16.41194","logoname":"cepsa","idopeny":"0","recommended":"0","favorite":null,"distance":null},"358":{"idoffstation":"359","name":"REPSOL","address":"CARRETERA TF-1 KM. 44,2","ilat":"28.13097","ilng":"-16.46353","logoname":"repsol","idopeny":"0","recommended":"0","favorite":null,"distance":null},"359":{"idoffstation":"360","name":"SHELL ACENTEJO","address":"CR  GENERAL DEL NORTE, 272","ilat":"28.43947","ilng":"-16.46236","logoname":"shell","idopeny":"0","recommended":"0","favorite":null,"distance":null},"360":{"idoffstation":"361","name":"REPSOL","address":"CARRETERA TF-47 KM. 2,7","ilat":"28.13403","ilng":"-16.76808","logoname":"repsol","idopeny":"0","recommended":"0","favorite":null,"distance":null},"361":{"idoffstation":"362","name":"REPSOL","address":"AUTOVIA TF-1 KM. 36,5","ilat":"28.22269","ilng":"-16.41414","logoname":"repsol","idopeny":"0","recommended":"0","favorite":null,"distance":null},"362":{"idoffstation":"363","name":"DISA EL BOHIO","address":"AUTOVIA TF-5 km 25","ilat":"28.44953","ilng":"-16.46047","logoname":"disa","idopeny":"0","recommended":"0","favorite":null,"distance":null},"363":{"idoffstation":"364","name":"CEPSA EL PENON","address":"AUTOPISTA NORTE TF-5 KM. 16","ilat":"28.48739","ilng":"-16.383","logoname":"cepsa","idopeny":"0","recommended":"0","favorite":null,"distance":null},"364":{"idoffstation":"365","name":"CEPSA LAS TORRES (TEXACO)","address":"URB. D\u00cdAZ CASANOVA, 2","ilat":"28.11842","ilng":"-15.45389","logoname":"cepsa","idopeny":"0","recommended":"0","favorite":null,"distance":null},"365":{"idoffstation":"366","name":"CEPSA GRAN TARAJAL","address":"AVENIDA CONSTITUCION (DE LA), 16","ilat":"28.21503","ilng":"-14.02069","logoname":"cepsa","idopeny":"0","recommended":"0","favorite":null,"distance":null},"366":{"idoffstation":"367","name":"CEPSA ANTIGUA","address":"CARRETERA GENERAL DEL SUR - CRUCE LAS POCETAS KM. 0","ilat":"28.40944","ilng":"-14.01522","logoname":"cepsa","idopeny":"0","recommended":"0","favorite":null,"distance":null},"367":{"idoffstation":"368","name":"DISA VEGUETA","address":"CALLE EUFEMIANO JURADO, 4","ilat":"28.09622","ilng":"-15.41533","logoname":"disa","idopeny":"0","recommended":"0","favorite":null,"distance":null},"368":{"idoffstation":"369","name":"CEPSA LOS ANDENES","address":"AVENIDA PASO EL (LOS MAJUELOS), 108","ilat":"28.44744","ilng":"-16.30725","logoname":"cepsa","idopeny":"0","recommended":"0","favorite":null,"distance":null},"369":{"idoffstation":"370","name":"DISA MILLER BAJO","address":"CALLE LUIS CORREA MEDINA, 19","ilat":"28.10203","ilng":"-15.43725","logoname":"disa","idopeny":"0","recommended":"0","favorite":null,"distance":null},"370":{"idoffstation":"371","name":"SHELL SCHAMANN","address":"PASEO JOSE ANTONIO, 89","ilat":"28.11331","ilng":"-15.42844","logoname":"shell","idopeny":"0","recommended":"0","favorite":null,"distance":null},"371":{"idoffstation":"372","name":"CEPSA PUERTO ROSARIO","address":"AVENIDA JUAN DE BETHENCOURT, 24","ilat":"28.50133","ilng":"-13.86328","logoname":"cepsa","idopeny":"0","recommended":"0","favorite":null,"distance":null},"372":{"idoffstation":"373","name":"DISA TARAHALES I","address":"CARRETERA LOS TARAHALES KM. S\/N","ilat":"28.09539","ilng":"-15.4515","logoname":"disa","idopeny":"0","recommended":"0","favorite":null,"distance":null},"373":{"idoffstation":"374","name":"SHELL TARAHALES II","address":"CARRETERA LOS TARAHALES KM. S\/N","ilat":"28.09647","ilng":"-15.45047","logoname":"shell","idopeny":"0","recommended":"0","favorite":null,"distance":null},"374":{"idoffstation":"375","name":"CEPSA SIETE PALMAS","address":"AVENIDA PINTOR FELO MONZON, 48","ilat":"28.09389","ilng":"-15.45714","logoname":"cepsa","idopeny":"0","recommended":"0","favorite":null,"distance":null},"375":{"idoffstation":"376","name":"DISA","address":"CARRETERA GENERAL DEL GORO KM. S\/N","ilat":"27.96078","ilng":"-15.40481","logoname":"disa","idopeny":"0","recommended":"0","favorite":null,"distance":null},"376":{"idoffstation":"377","name":"CEPSA","address":"AVENIDA JUAN CARLOS I, 42","ilat":"28.11244","ilng":"-15.45","logoname":"cepsa","idopeny":"0","recommended":"0","favorite":null,"distance":null},"377":{"idoffstation":"378","name":"PCAN","address":"CALLE SAN BLAS, 15","ilat":"28.95139","ilng":"-13.64928","logoname":"no-logo","idopeny":"0","recommended":"0","favorite":null,"distance":null},"378":{"idoffstation":"379","name":"REPSOL","address":"PG IND. A\u00d1AZA PARC-39, S.N.","ilat":"28.42747","ilng":"-16.301","logoname":"repsol","idopeny":"0","recommended":"0","favorite":null,"distance":null},"379":{"idoffstation":"380","name":"REPSOL","address":"CALLE PI\u00d1ERA, SN","ilat":"28.37708","ilng":"-16.57139","logoname":"repsol","idopeny":"0","recommended":"0","favorite":null,"distance":null},"380":{"idoffstation":"381","name":"REPSOL","address":"CARRETERA ARAFO LA HIDALGA TF-413 KM. 1","ilat":"28.33392","ilng":"-16.39558","logoname":"repsol","idopeny":"0","recommended":"0","favorite":null,"distance":null},"381":{"idoffstation":"382","name":"CEPSA","address":"ACCESO ACCESO AEROPUERTO TENERIFE SUR, 1","ilat":"28.05","ilng":"-16.57464","logoname":"cepsa","idopeny":"0","recommended":"0","favorite":null,"distance":null},"382":{"idoffstation":"383","name":"REPSOL","address":"PLAZA IND VALLE GUIMAR MANZ-, S\/N","ilat":"28.33122","ilng":"-16.37233","logoname":"repsol","idopeny":"0","recommended":"0","favorite":null,"distance":null},"383":{"idoffstation":"384","name":"BP MUELLE CHICO","address":"CALLE MUELLE DARSENA PESQUERA, S\/N","ilat":"28.49564","ilng":"-13.85989","logoname":"bp","idopeny":"0","recommended":"0","favorite":null,"distance":null},"384":{"idoffstation":"385","name":"CEPSA LOS LLANOS - GRANAD","address":"CARRETERA GRANADILLA MEDANO KM. 2,25","ilat":"28.10469","ilng":"-16.57847","logoname":"cepsa","idopeny":"0","recommended":"0","favorite":null,"distance":null},"385":{"idoffstation":"386","name":"REPSOL","address":"CARRETERA TF-65 KM. 3,9","ilat":"28.08444","ilng":"-16.61039","logoname":"repsol","idopeny":"0","recommended":"0","favorite":null,"distance":null},"386":{"idoffstation":"387","name":"CEPSA ESCALERITAS","address":"AVENIDA ESCALERITAS, 152","ilat":"28.10372","ilng":"-15.44175","logoname":"cepsa","idopeny":"0","recommended":"0","favorite":null,"distance":null},"387":{"idoffstation":"388","name":"CEPSA","address":null,"ilat":"28.45503","ilng":"-16.26814","logoname":"cepsa","idopeny":"0","recommended":"0","favorite":null,"distance":null},"388":{"idoffstation":"389","name":"SHELL","address":"CARRETERA GRAL. PUERTO CUZ-LAS ARENAS KM. 132","ilat":"28.398","ilng":"-16.54742","logoname":"shell","idopeny":"0","recommended":"0","favorite":null,"distance":null},"389":{"idoffstation":"390","name":"REPSOL","address":"CARRETERA SAN LORENZO KM. S\/N","ilat":"28.07656","ilng":"-15.46389","logoname":"repsol","idopeny":"0","recommended":"0","favorite":null,"distance":null},"390":{"idoffstation":"391","name":"REPSOL","address":"AVENIDA ESCALERITAS, S\/N","ilat":"28.10142","ilng":"-15.44711","logoname":"repsol","idopeny":"0","recommended":"0","favorite":null,"distance":null},"391":{"idoffstation":"392","name":"PCAN","address":"CARRETERA LP2 FUENCALIENTE KM. 24,6","ilat":"28.50092","ilng":"-17.83522","logoname":"no-logo","idopeny":"0","recommended":"0","favorite":null,"distance":null},"392":{"idoffstation":"393","name":"ESTACION REPSOL","address":"CARRETERA GENERAL DEL SUR KM 13 KM. 13","ilat":"27.96719","ilng":"-15.39094","logoname":"no-logo","idopeny":"0","recommended":"0","favorite":null,"distance":null},"393":{"idoffstation":"394","name":"BP KM 13 - 1 (SAN ANDRES)","address":"CARRETERA CTRA. GRAL. DEL NORTE KM. 13","ilat":"28.14547","ilng":"-15.56083","logoname":"bp","idopeny":"0","recommended":"0","favorite":null,"distance":null},"394":{"idoffstation":"395","name":"PCAN","address":"CARRETERA LOS CASTILLOES KM. S\/N","ilat":"28.08678","ilng":"-15.54225","logoname":"repsol","idopeny":"0","recommended":"0","favorite":null,"distance":null},"395":{"idoffstation":"396","name":"REPSOL","address":"AVENIDA DE ESCALERITAS, 112","ilat":"28.11064","ilng":"-15.43989","logoname":"repsol","idopeny":"0","recommended":"0","favorite":null,"distance":null},"396":{"idoffstation":"397","name":"DISA JINAMAR","address":"AVENIDA SANTA RITA DE CASIA, S\/N","ilat":"28.03414","ilng":"-15.4135","logoname":"disa","idopeny":"0","recommended":"0","favorite":null,"distance":null},"397":{"idoffstation":"398","name":"CEPSA LOS ALMENDROS","address":"AVENIDA LOS ALMENDROS, 42","ilat":"27.99556","ilng":"-15.47264","logoname":"cepsa","idopeny":"0","recommended":"0","favorite":null,"distance":null},"398":{"idoffstation":"399","name":"ESTACION REPSOL","address":"CALLE ANSITE, 100","ilat":"27.87633","ilng":"-15.42633","logoname":"no-logo","idopeny":"0","recommended":"0","favorite":null,"distance":null},"399":{"idoffstation":"400","name":"REPSOL","address":"CARRETERA GC-300 KM. 7,6","ilat":"28.03881","ilng":"-15.41886","logoname":"repsol","idopeny":"0","recommended":"0","favorite":null,"distance":null},"400":{"idoffstation":"401","name":"CEPSA - ALEXIS MANUEL JIM","address":"AUTOVIA GC-2 KM. 5,2","ilat":"28.13619","ilng":"-15.48781","logoname":"cepsa","idopeny":"0","recommended":"0","favorite":null,"distance":null},"401":{"idoffstation":"402","name":"DISA","address":"CALLE JUAN CARLOS I, 9","ilat":"27.99181","ilng":"-15.49542","logoname":"disa","idopeny":"0","recommended":"0","favorite":null,"distance":null},"402":{"idoffstation":"403","name":"REPSOL","address":"CALLE CL OBISPO VERDUGO, 39","ilat":"27.99239","ilng":"-15.41481","logoname":"repsol","idopeny":"0","recommended":"0","favorite":null,"distance":null},"403":{"idoffstation":"404","name":"CEPSA","address":"CARRETERA TF-28 KM. 92","ilat":"28.07569","ilng":"-16.68786","logoname":"cepsa","idopeny":"0","recommended":"0","favorite":null,"distance":null},"404":{"idoffstation":"405","name":"BP KM 13 - 2 (SAN ANDRES)","address":"CARRETERA CTRA. GRAL. DEL NORTE KM. 13","ilat":"28.14494","ilng":"-15.56033","logoname":"bp","idopeny":"0","recommended":"0","favorite":null,"distance":null},"405":{"idoffstation":"406","name":"REPSOL","address":"CARRETERA DE CHILE KM. 84","ilat":"28.11708","ilng":"-15.45525","logoname":"repsol","idopeny":"0","recommended":"0","favorite":null,"distance":null},"406":{"idoffstation":"407","name":"CEPSA","address":"AUTOPISTA TF-21 KM. 3,5","ilat":"28.43653","ilng":"-16.28217","logoname":"cepsa","idopeny":"0","recommended":"0","favorite":null,"distance":null},"407":{"idoffstation":"408","name":"CEPSA SICAL","address":"C-811, MD, PK km 2.6","ilat":"28.08664","ilng":"-15.43361","logoname":"cepsa","idopeny":"0","recommended":"0","favorite":null,"distance":null},"408":{"idoffstation":"409","name":"DISA","address":"CALLE CRUCE MELENARA, S\/N","ilat":"27.99433","ilng":"-15.39356","logoname":"disa","idopeny":"0","recommended":"0","favorite":null,"distance":null},"409":{"idoffstation":"410","name":"CEPSA","address":"TRAVES\u00cdA C-810 PK 27, 33","ilat":"28.14533","ilng":"-15.65225","logoname":"cepsa","idopeny":"0","recommended":"0","favorite":null,"distance":null},"410":{"idoffstation":"411","name":"CEPSA","address":"AUTOVIA GC-1 (AEROPUERTO DE GRAN CANARIA ) KM. 16","ilat":"27.94072","ilng":"-15.38997","logoname":"cepsa","idopeny":"0","recommended":"0","favorite":null,"distance":null},"411":{"idoffstation":"412","name":"CEPSA BRAVO MURILLO","address":"PASEO CHIL, 2","ilat":"28.10756","ilng":"-15.42111","logoname":"cepsa","idopeny":"0","recommended":"0","favorite":null,"distance":null},"412":{"idoffstation":"413","name":"CEPSA LOS PORTALES (TEXAC","address":"CARRETERA GC-43 KM. 4,800","ilat":"28.09756","ilng":"-15.53839","logoname":"cepsa","idopeny":"0","recommended":"0","favorite":null,"distance":null},"413":{"idoffstation":"414","name":"SHELL TOMAS MORALES","address":"PASEO TOMS MORALES, 94","ilat":"28.11494","ilng":"-15.425","logoname":"shell","idopeny":"0","recommended":"0","favorite":null,"distance":null},"414":{"idoffstation":"415","name":"CEPSA EL CUBILLO","address":"CALLE CUBILLO, 1","ilat":"28.0065","ilng":"-15.41475","logoname":"cepsa","idopeny":"0","recommended":"0","favorite":null,"distance":null},"415":{"idoffstation":"416","name":"DISA AVENIDA","address":"AVENIDA PRIMERO DE MAYO, 4","ilat":"28.10236","ilng":"-15.4175","logoname":"disa","idopeny":"0","recommended":"0","favorite":null,"distance":null},"416":{"idoffstation":"417","name":"TEXACO","address":"CALLE CRUZ DE FERRER, 10","ilat":"29.14889","ilng":"-13.49767","logoname":"no-logo","idopeny":"0","recommended":"0","favorite":null,"distance":null},"417":{"idoffstation":"418","name":"REPSOL","address":"CARRETERA LZ-2 ARRECIFE-PLAYA BLANCA KM. S\/N","ilat":"28.92358","ilng":"-13.82458","logoname":"repsol","idopeny":"0","recommended":"0","favorite":null,"distance":null},"418":{"idoffstation":"419","name":"DISA EL MATORRAL","address":"CARRETERA PUERTO ROSARIO - EL CASTILLO KM. 8","ilat":"28.42169","ilng":"-13.86514","logoname":"disa","idopeny":"0","recommended":"0","favorite":null,"distance":null},"419":{"idoffstation":"420","name":"DISA  EL CHARCO","address":"CALLE ALFONSO XIII, 65","ilat":"28.50619","ilng":"-13.85056","logoname":"disa","idopeny":"0","recommended":"0","favorite":null,"distance":null},"420":{"idoffstation":"421","name":"DISA SECUNDINO ALONSO","address":"CALLE SECUNDINO ALONSO, 26","ilat":"28.49842","ilng":"-13.86181","logoname":"disa","idopeny":"0","recommended":"0","favorite":null,"distance":null},"421":{"idoffstation":"422","name":"DISA RIO CABRAS","address":"AUTOVIA PUERTO DEL ROSARIO-CALETA DE FUSTE KM. 3,5","ilat":"28.46872","ilng":"-13.86681","logoname":"disa","idopeny":"0","recommended":"0","favorite":null,"distance":null},"422":{"idoffstation":"423","name":"DISA EL CARACOL","address":"CARRETERA CARRETERA GENERAL DE TARAJALEJO KM. 16","ilat":"28.23131","ilng":"-14.10378","logoname":"disa","idopeny":"0","recommended":"0","favorite":null,"distance":null},"423":{"idoffstation":"424","name":"A800-02","address":"CARRETERA ARRECIFE YAIZA KM. 12","ilat":"28.94831","ilng":"-13.68628","logoname":"no-logo","idopeny":"0","recommended":"0","favorite":null,"distance":null},"424":{"idoffstation":"425","name":"CEPSA","address":"CARRETERA GRAL DEL SUR KM. 34,5","ilat":"27.86469","ilng":"-15.43231","logoname":"cepsa","idopeny":"0","recommended":"0","favorite":null,"distance":null},"425":{"idoffstation":"426","name":"CEPSA","address":"CARRETERA C-817 KM. 21","ilat":"28.06192","ilng":"-15.54553","logoname":"cepsa","idopeny":"0","recommended":"0","favorite":null,"distance":null},"426":{"idoffstation":"427","name":"CEPSA","address":"AVENIDA ANGEL ROMERO, 17","ilat":"28.46308","ilng":"-16.27706","logoname":"cepsa","idopeny":"0","recommended":"0","favorite":null,"distance":null},"427":{"idoffstation":"428","name":"CEPSA","address":"CALLE LOMO GUILLEN, 16","ilat":"28.14133","ilng":"-15.63394","logoname":"cepsa","idopeny":"0","recommended":"0","favorite":null,"distance":null},"428":{"idoffstation":"429","name":"DISA SAN ISIDRO","address":"AVENIDA SANTA CRUZ, SN","ilat":"28.07828","ilng":"-16.55806","logoname":"disa","idopeny":"0","recommended":"0","favorite":null,"distance":null},"429":{"idoffstation":"430","name":"CEPSA","address":"AUTOVIA GC-1, AEROPUERTO GANDO (LADO AIRE) KM. 16,000","ilat":"27.93189","ilng":"-15.39172","logoname":"cepsa","idopeny":"0","recommended":"0","favorite":null,"distance":null},"430":{"idoffstation":"431","name":"CEPSA","address":"CARRETERA CTRA. GRAL. DEL SUR KM. 34,5","ilat":"27.86481","ilng":"-15.43258","logoname":"cepsa","idopeny":"0","recommended":"0","favorite":null,"distance":null},"431":{"idoffstation":"432","name":"CEPSA","address":"CALLE HIEDRA, 3","ilat":"27.86311","ilng":"-15.43575","logoname":"cepsa","idopeny":"0","recommended":"0","favorite":null,"distance":null},"432":{"idoffstation":"433","name":"PCAN LA AZADILLA","address":"CARRETERA LOS REALEJOS-ICOD EL ALTO KM. 10","ilat":"28.37364","ilng":"-16.59006","logoname":"disa","idopeny":"0","recommended":"0","favorite":null,"distance":null},"433":{"idoffstation":"434","name":"DISA TIJOCO","address":"CARRETERA CTRA.GRAL.ADEJE A GUIA DE ISORA KM. 118,200","ilat":"28.15897","ilng":"-16.76289","logoname":"disa","idopeny":"0","recommended":"0","favorite":null,"distance":null},"434":{"idoffstation":"435","name":"E.S. CEPSA CHIO","address":"PASEO LA LIBERTAD, 49","ilat":"28.24458","ilng":"-16.79939","logoname":"no-logo","idopeny":"0","recommended":"0","favorite":null,"distance":null},"435":{"idoffstation":"436","name":"CEPSA JUAN GRANDE","address":"CARRETERA C-812 KM. 42","ilat":"27.805","ilng":"-15.47433","logoname":"cepsa","idopeny":"0","recommended":"0","favorite":null,"distance":null},"436":{"idoffstation":"437","name":"DISA ARACAYU","address":"AVENIDA VENEZUELA, S\/N","ilat":"28.46739","ilng":"-16.27103","logoname":"disa","idopeny":"0","recommended":"0","favorite":null,"distance":null},"437":{"idoffstation":"438","name":"DISA","address":"CARRETERA CARRETERA GENERAL 821 KM. 68,80","ilat":"28.15303","ilng":"-16.64017","logoname":"disa","idopeny":"0","recommended":"0","favorite":null,"distance":null},"438":{"idoffstation":"439","name":"DISA BALNEARIO II","address":"AUTOVIA SANTA CRUZ - SAN ANDRES KM. S\/N","ilat":"28.48861","ilng":"-16.23161","logoname":"disa","idopeny":"0","recommended":"0","favorite":null,"distance":null},"439":{"idoffstation":"440","name":"REPSOL","address":"CALLE VELAZQUEZ, 1","ilat":"27.98058","ilng":"-15.39211","logoname":"repsol","idopeny":"0","recommended":"0","favorite":null,"distance":null},"440":{"idoffstation":"441","name":"REPSOL","address":"CALLE GREGORIO MARA\u00d1ON, S\/N","ilat":"28.10125","ilng":"-15.44067","logoname":"repsol","idopeny":"0","recommended":"0","favorite":null,"distance":null},"441":{"idoffstation":"442","name":"DISA","address":"CALLE VALOIS km S\/N","ilat":"28.41439","ilng":"-16.54833","logoname":"disa","idopeny":"0","recommended":"0","favorite":null,"distance":null},"442":{"idoffstation":"443","name":"DISA PADRE ANCHIETA","address":"GLORIETA DEL BRASIL, S\/N","ilat":"28.48156","ilng":"-16.31856","logoname":"disa","idopeny":"0","recommended":"0","favorite":null,"distance":null},"443":{"idoffstation":"444","name":"DISA VISTABELLA","address":"CALLE MILAGROSA (LA) LA CUESTA, 2","ilat":"28.46611","ilng":"-16.28378","logoname":"disa","idopeny":"0","recommended":"0","favorite":null,"distance":null},"444":{"idoffstation":"445","name":"DISA","address":"CARRETERA TF-342 LOS REALEJOS - LA GUANCHA KM. 15","ilat":"28.37911","ilng":"-16.61897","logoname":"disa","idopeny":"0","recommended":"0","favorite":null,"distance":null},"445":{"idoffstation":"446","name":"REPSOL","address":"CR  GC-1 P.K. 8 M.I. (SALIDA A PARQ","ilat":"28.01172","ilng":"-15.38667","logoname":"repsol","idopeny":"0","recommended":"0","favorite":null,"distance":null},"446":{"idoffstation":"447","name":"CEPSA","address":"CARRETERA GENERAL DEL SUR KM. 84,950","ilat":"28.28083","ilng":"-16.81272","logoname":"cepsa","idopeny":"0","recommended":"0","favorite":null,"distance":null},"447":{"idoffstation":"448","name":"DISA","address":"CARRETERA C 820 KM 35.5 MARGUEN I KM. 35,5","ilat":"28.39833","ilng":"-16.52233","logoname":"disa","idopeny":"0","recommended":"0","favorite":null,"distance":null},"448":{"idoffstation":"449","name":"DISA","address":"CARRETERA LOS ROQUES KM. 6,5","ilat":"28.23642","ilng":"-16.43958","logoname":"disa","idopeny":"0","recommended":"0","favorite":null,"distance":null},"449":{"idoffstation":"450","name":"DISA EL SAUZAL","address":"CARRETERA GRAL DEL NORTE KM. 20,400","ilat":"28.47383","ilng":"-16.42122","logoname":"disa","idopeny":"0","recommended":"0","favorite":null,"distance":null},"450":{"idoffstation":"451","name":"DISA TIO PINO","address":"CARRETERA DEL ROSARIO C-822 KM. 2","ilat":"28.45842","ilng":"-16.27231","logoname":"disa","idopeny":"0","recommended":"0","favorite":null,"distance":null},"451":{"idoffstation":"452","name":"DISA","address":"AVENIDA SANTA CRUZ, 53","ilat":"28.31906","ilng":"-16.40797","logoname":"disa","idopeny":"0","recommended":"0","favorite":null,"distance":null},"452":{"idoffstation":"453","name":"SHELL EL AGUILA","address":"CARRETERA MARTIANEZ TF-131 KM. 2,4","ilat":"28.41172","ilng":"-16.52956","logoname":"shell","idopeny":"0","recommended":"0","favorite":null,"distance":null},"453":{"idoffstation":"454","name":"DISA RAVELO","address":"CARRERA GENERAL DEL NORTE, 20,450","ilat":"28.461","ilng":"-16.41511","logoname":"disa","idopeny":"0","recommended":"0","favorite":null,"distance":null},"454":{"idoffstation":"455","name":"DISA LOS MAJUELOS","address":"AVENIDA LOS MAJUELOS, 26","ilat":"28.45467","ilng":"-16.29672","logoname":"disa","idopeny":"0","recommended":"0","favorite":null,"distance":null},"455":{"idoffstation":"456","name":"CEPSA","address":"CALLE SHAKESPEARE, 1","ilat":"28.01178","ilng":"-15.39706","logoname":"cepsa","idopeny":"0","recommended":"0","favorite":null,"distance":null},"456":{"idoffstation":"457","name":"DISA","address":"MIRAFLOR - TEROR (GENERAL C-817 km 8)","ilat":"28.07025","ilng":"-15.52747","logoname":"disa","idopeny":"0","recommended":"0","favorite":null,"distance":null},"457":{"idoffstation":"458","name":"DISA FANABE","address":"General C-822 km 110,14","ilat":"28.10481","ilng":"-16.73189","logoname":"disa","idopeny":"0","recommended":"0","favorite":null,"distance":null},"458":{"idoffstation":"459","name":"DISA LAS CHAFIRAS","address":"CARRETERA CARRETEA GENERAL A LAS GALLETAS-CHAFIRAS KM. S\/N","ilat":"28.05","ilng":"-16.61269","logoname":"disa","idopeny":"0","recommended":"0","favorite":null,"distance":null},"459":{"idoffstation":"460","name":"DISA TACO","address":"CARRETERA CARRETERA GENERAL DEL SUR KM. 6,200","ilat":"28.44503","ilng":"-16.3005","logoname":"disa","idopeny":"0","recommended":"0","favorite":null,"distance":null},"460":{"idoffstation":"461","name":"DISA OFRA","address":"CARRETERA SUR (CUESTA-TACO) KM. 2","ilat":"28.46767","ilng":"-16.28581","logoname":"disa","idopeny":"0","recommended":"0","favorite":null,"distance":null},"461":{"idoffstation":"462","name":"DISA FOMENTO","address":"CALLE FOMENTO, S\/N, ","ilat":"28.45836","ilng":"-16.2535","logoname":"disa","idopeny":"0","recommended":"0","favorite":null,"distance":null},"462":{"idoffstation":"463","name":"DISA LOS CRISTIANOS","address":"CALLE GENERAL FRANCO, 1","ilat":"28.05281","ilng":"-16.71539","logoname":"disa","idopeny":"0","recommended":"0","favorite":null,"distance":null},"463":{"idoffstation":"464","name":"DISA LLANO AZUL","address":"CARRETERA CARRETERA GENERAL GUAZA LOS CRISTIANOS KM. 1","ilat":"28.06133","ilng":"-16.69214","logoname":"disa","idopeny":"0","recommended":"0","favorite":null,"distance":null},"464":{"idoffstation":"465","name":"DISA BALNEARIO I","address":"AUTOVIA SANTA CRUZ-SAN ANDRES KM. S\/N","ilat":"28.48911","ilng":"-16.23189","logoname":"disa","idopeny":"0","recommended":"0","favorite":null,"distance":null},"465":{"idoffstation":"466","name":"DISA","address":"CARRETERA LAVERA LA MONTA\u00d1A KM. 1","ilat":"28.39483","ilng":"-16.55833","logoname":"disa","idopeny":"0","recommended":"0","favorite":null,"distance":null},"466":{"idoffstation":"467","name":"DISA TEJINA","address":"CALLE FELIPE CASTILLO, 3","ilat":"28.53325","ilng":"-16.36306","logoname":"disa","idopeny":"0","recommended":"0","favorite":null,"distance":null},"467":{"idoffstation":"468","name":"CEPSA INGENIO","address":"CALLE JULIANO BONNY GOMEZ, 36","ilat":"27.91789","ilng":"-15.42917","logoname":"cepsa","idopeny":"0","recommended":"0","favorite":null,"distance":null},"468":{"idoffstation":"469","name":"DISA BAJADA A LOS GIGANTE","address":"CARRETERA PUERTO SANTIAGO - TAMAIMO KM. 1,5","ilat":"28.26081","ilng":"-16.82428","logoname":"disa","idopeny":"0","recommended":"0","favorite":null,"distance":null},"469":{"idoffstation":"470","name":"DISA PUERTITO","address":"CARRETERA TF-61 KM. 2,800","ilat":"28.30639","ilng":"-16.38606","logoname":"disa","idopeny":"0","recommended":"0","favorite":null,"distance":null},"470":{"idoffstation":"471","name":"DISA LA MATANZA","address":"CARRETERA GENERAL DEL NORTE C-820 KM. 24,000","ilat":"28.45664","ilng":"-16.45056","logoname":"disa","idopeny":"0","recommended":"0","favorite":null,"distance":null},"471":{"idoffstation":"472","name":"DISA CUEVAS BLANCAS","address":"CALLE GUAIRE - URB.CUEVAS BLANCAS, S\/N","ilat":"28.42731","ilng":"-16.3045","logoname":"disa","idopeny":"0","recommended":"0","favorite":null,"distance":null},"472":{"idoffstation":"473","name":"MARINA DEL SUR","address":"MUELLE PUERTO DE LAS GALLETAS, S\/N","ilat":"28.00708","ilng":"-16.66111","logoname":"no-logo","idopeny":"0","recommended":"0","favorite":null,"distance":null},"473":{"idoffstation":"474","name":"DISA PLAYA SAN JUAN","address":"CARRETERA CARRETERA GENERAL TF-623 KM. 13","ilat":"28.19386","ilng":"-16.82225","logoname":"disa","idopeny":"0","recommended":"0","favorite":null,"distance":null},"474":{"idoffstation":"475","name":"DISA","address":"AVENIDA FUNDADOR GONZALO GONZALEZ, S\/N","ilat":"28.11625","ilng":"-16.57678","logoname":"disa","idopeny":"0","recommended":"0","favorite":null,"distance":null},